type,id,mac,rssi,rate,sig_mode,mcs,bandwidth,smoothing,not_sounding,aggregation,stbc,fec_coding,sgi,noise_floor,ampdu_cnt,channel,secondary_channel,local_timestamp,ant,sig_len,rx_state,len,first_word,data,tello_battery,tello_height,tello_temperature,tello_flight_time,tello_barometer,tello_tof,tello_pitch,tello_roll,tello_yaw,tello_speed_x,tello_speed_y,tello_speed_z,tello_accel_x,tello_accel_y,tello_accel_z
CSI_DATA,10543,60:60:1f:fd:0a:5b,-63,8,0,0,0,0,0,0,0,0,0,-89,0,3,0,113256227,0,67,0,128,1,"[67,48,4,0,-2,22,-2,23,-3,24,-3,24,-3,25,-4,25,-4,25,-3,25,-3,26,-2,26,-2,25,-2,25,-1,26,0,26,0,26,0,27,0,27,1,27,0,27,0,26,0,26,0,26,0,27,0,28,-1,28,-1,7,0,0,0,0,0,0,0,0,0,0,0,0,0,0,0,0,0,0,-1,-3,-4,-10,-3,-10,-2,-9,-2,-8,-1,-8,0,-7,0,-6,0,-4,0,-3,0,-2,0,-1,0,0,0,1,0,2,-1,4,-1,5,-1,6,-1,7,-1,8,-1,10,-1,11,-1,13,-1,14,-1,16,0,17,0,18]",58,0,89.5,61,-179.0,10,0,0,79,0,0,0,-5.0,0.0,-999.0
CSI_DATA,10556,60:60:1f:fd:0a:5b,-63,13,0,0,0,0,0,0,0,0,0,-89,0,3,0,113391643,0,67,0,128,1,"[67,48,4,0,4,-26,4,-28,5,-28,5,-28,4,-29,4,-30,4,-30,4,-30,3,-30,1,-30,0,-30,-1,-30,-2,-31,-2,-32,-3,-32,-3,-33,-2,-33,0,-33,0,-32,0,-32,-1,-32,-2,-32,0,-32,3,-31,5,-31,1,-8,0,0,0,0,0,0,0,0,0,0,0,0,0,0,0,0,0,0,0,2,2,11,1,10,1,11,0,10,0,8,-1,6,-1,6,-1,5,-2,3,-2,1,-1,0,0,-1,0,-3,1,-4,2,-5,2,-6,3,-7,3,-8,3,-10,3,-12,3,-13,4,-15,4,-16,3,-19,3,-21,4,-22]",58,0,89.5,61,-179.0,10,0,0,79,0,0,0,-5.0,0.0,-999.0
CSI_DATA,10565,60:60:1f:fd:0a:5b,-63,8,0,0,0,0,0,0,0,0,0,-89,0,3,0,113462128,0,67,0,128,1,"[67,48,4,0,-5,23,-6,24,-6,25,-7,25,-7,25,-7,25,-8,26,-7,26,-7,26,-7,26,-7,25,-7,25,-6,26,-6,27,-5,27,-5,27,-4,27,-4,27,-4,27,-4,26,-4,26,-4,26,-4,27,-5,27,-5,28,-2,7,0,0,0,0,0,0,0,0,0,0,0,0,0,0,0,0,0,0,-1,-3,-3,-10,-2,-10,-1,-10,-1,-9,-1,-8,0,-7,0,-6,0,-4,0,-3,0,-2,0,-1,0,0,-1,2,-1,3,-1,4,-1,5,-1,6,-2,8,-2,9,-2,10,-2,12,-2,13,-2,15,-2,17,-2,18,-2,19]",58,0,89.5,61,-179.0,10,0,0,79,0,0,0,-5.0,0.0,-999.0
CSI_DATA,10587,60:60:1f:fd:0a:5b,-63,8,0,0,0,0,0,0,0,0,0,-89,0,3,0,113668725,0,67,0,128,1,"[67,48,4,0,-23,5,-24,5,-25,5,-25,4,-25,4,-26,4,-26,4,-26,4,-26,5,-26,5,-25,6,-26,6,-26,7,-26,7,-26,7,-26,8,-26,8,-27,8,-26,7,-26,7,-26,7,-26,7,-27,8,-27,8,-28,7,-7,1,0,0,0,0,0,0,0,0,0,0,0,0,0,0,0,0,0,0,1,-2,7,-7,7,-6,7,-6,7,-5,6,-3,6,-3,5,-2,4,-1,2,-1,1,0,0,0,-1,1,-2,1,-3,1,-5,1,-6,1,-7,2,-8,2,-9,2,-11,2,-12,3,-13,3,-15,4,-16,5,-17,6,-18,6]",58,0,89.5,61,-179.0,10,0,0,79,0,0,0,-5.0,0.0,-999.0
CSI_DATA,10595,60:60:1f:fd:0a:5b,-63,9,0,0,0,0,0,0,0,0,0,-89,0,3,0,113785694,0,67,0,128,1,"[67,48,4,0,6,25,6,26,6,26,6,27,7,27,8,28,8,28,8,27,9,27,10,26,11,26,13,26,14,26,14,26,15,27,16,27,15,28,14,28,14,27,14,27,15,27,16,27,15,27,12,29,9,30,2,7,0,0,0,0,0,0,0,0,0,0,0,0,0,0,0,0,0,0,-2,-4,-5,-14,-4,-13,-3,-11,-2,-10,-1,-9,-1,-8,0,-7,1,-5,2,-4,2,-3,1,-2,0,0,0,1,-1,2,-1,3,0,5,0,6,0,7,0,9,1,10,1,12,2,13,2,15,3,17,4,19,4,21]",58,0,89.5,61,-179.0,10,0,0,79,0,0,0,-5.0,0.0,-999.0
CSI_DATA,10599,60:60:1f:fd:0a:5b,-63,8,0,0,0,0,0,0,0,0,0,-89,0,3,0,113830942,0,67,0,128,1,"[67,48,4,0,8,21,8,22,8,23,7,23,7,23,7,23,7,24,7,24,8,24,8,24,8,24,8,24,9,24,10,24,10,24,10,23,11,24,11,24,11,23,11,23,10,23,10,23,11,24,11,25,10,26,2,6,0,0,0,0,0,0,0,0,0,0,0,0,0,0,0,0,0,0,-3,-2,-8,-7,-7,-7,-6,-6,-5,-6,-4,-6,-3,-6,-3,-5,-2,-4,-1,-3,-1,-2,-1,-1,0,0,0,1,1,2,1,3,1,4,2,5,3,6,3,7,3,9,4,10,5,11,5,12,6,14,7,15,8,16]",58,0,89.5,61,-179.0,10,0,0,79,0,0,0,-5.0,0.0,-999.0
CSI_DATA,10604,60:60:1f:fd:0a:5b,-63,8,0,0,0,0,0,0,0,0,0,-89,0,3,0,113877180,0,67,0,128,1,"[67,48,4,0,-22,-9,-23,-10,-23,-10,-23,-11,-23,-12,-23,-12,-23,-12,-24,-11,-24,-11,-25,-10,-24,-10,-24,-10,-25,-9,-26,-9,-26,-9,-26,-8,-27,-9,-27,-9,-26,-9,-26,-9,-26,-9,-26,-9,-27,-8,-28,-9,-28,-10,-7,-3,0,0,0,0,0,0,0,0,0,0,0,0,0,0,0,0,0,0,2,-1,10,-1,10,0,9,1,7,1,6,1,6,2,4,2,3,1,2,1,1,1,0,0,-1,0,-3,-1,-4,-1,-5,-2,-6,-2,-7,-2,-8,-3,-9,-3,-10,-4,-11,-4,-13,-5,-14,-5,-16,-5,-18,-5,-19,-5]",58,0,89.5,61,-179.0,10,0,0,79,0,0,0,-5.0,0.0,-999.0
CSI_DATA,10608,60:60:1f:fd:0a:5b,-63,9,0,0,0,0,0,0,0,0,0,-89,0,3,0,113921740,0,67,0,128,1,"[67,48,4,0,21,13,22,14,22,15,23,15,24,14,25,14,24,14,24,13,25,12,26,11,26,10,27,9,28,8,28,9,29,8,30,8,30,8,29,9,29,10,29,9,29,8,30,8,30,9,28,12,27,14,6,3,0,0,0,0,0,0,0,0,0,0,0,0,0,0,0,0,0,0,-3,0,-10,1,-10,-2,-11,-4,-10,-5,-7,-4,-6,-4,-6,-4,-5,-4,-3,-3,-1,-3,-1,-3,-1,-1,1,0,2,1,2,2,3,3,4,4,5,5,6,5,8,6,10,7,11,7,12,8,14,9,17,10,18,11]",58,0,89.5,61,-179.0,10,0,0,79,0,0,0,-5.0,0.0,-999.0
CSI_DATA,10632,60:60:1f:fd:0a:5b,-63,9,0,0,0,0,0,0,0,0,0,-89,0,3,0,114168049,0,67,0,128,1,"[67,48,4,0,-20,-16,-21,-16,-21,-17,-20,-17,-22,-17,-23,-17,-23,-18,-22,-18,-23,-17,-25,-15,-26,-14,-26,-13,-27,-13,-28,-13,-29,-13,-30,-13,-29,-14,-28,-15,-28,-15,-28,-15,-28,-14,-29,-14,-28,-16,-27,-18,-25,-20,-7,-5,0,0,0,0,0,0,0,0,0,0,0,0,0,0,0,0,0,0,2,1,10,5,8,3,8,2,8,4,8,6,8,7,5,6,3,4,2,4,1,2,1,1,0,0,-1,-1,-2,-2,-2,-3,-3,-4,-4,-5,-4,-6,-6,-6,-7,-7,-9,-9,-10,-10,-11,-13,-14,-15,-16,-13,-16,-13]",58,0,89.5,61,-179.0,10,0,0,79,0,0,0,-5.0,0.0,-999.0
CSI_DATA,10637,60:60:1f:fd:0a:5b,-63,8,0,0,0,0,0,0,0,0,0,-89,0,3,0,114219780,0,67,0,128,1,"[67,48,4,0,-21,-11,-22,-12,-22,-13,-22,-14,-22,-14,-22,-14,-22,-14,-22,-14,-23,-13,-23,-13,-23,-13,-23,-13,-24,-12,-25,-12,-25,-11,-25,-11,-25,-11,-26,-11,-25,-11,-25,-11,-25,-11,-25,-11,-26,-11,-27,-12,-27,-12,-7,-4,0,0,0,0,0,0,0,0,0,0,0,0,0,0,0,0,0,0,2,-1,11,-1,11,0,9,1,7,2,7,3,6,3,5,3,3,2,2,2,1,1,0,1,-1,0,-2,-1,-3,-1,-4,-2,-5,-2,-6,-3,-7,-3,-8,-4,-9,-4,-10,-5,-12,-6,-13,-6,-15,-7,-17,-7,-18,-7]",58,0,89.5,61,-179.0,10,0,0,79,0,0,0,-5.0,0.0,-999.0
CSI_DATA,10640,60:60:1f:fd:0a:5b,-63,8,0,0,0,0,0,0,0,0,0,-89,0,3,0,114248035,0,67,0,128,1,"[67,48,4,0,21,-6,22,-5,23,-5,24,-4,24,-4,24,-4,25,-5,25,-5,25,-6,25,-6,24,-6,24,-6,25,-7,25,-8,25,-8,25,-9,26,-9,26,-9,26,-9,25,-9,25,-9,25,-9,26,-9,27,-9,28,-9,7,-2,0,0,0,0,0,0,0,0,0,0,0,0,0,0,0,0,0,0,-3,1,-9,6,-9,5,-9,4,-8,3,-7,2,-6,1,-6,1,-5,0,-4,0,-3,-1,-1,-1,0,-1,1,-1,2,-1,3,-2,4,-2,5,-2,6,-2,8,-3,9,-3,10,-3,12,-4,13,-5,15,-5,16,-6,18,-7]",58,0,89.5,61,-179.0,10,0,0,79,0,0,0,-5.0,0.0,-999.0
CSI_DATA,10675,60:60:1f:fd:0a:5b,-63,8,0,0,0,0,0,0,0,0,0,-89,0,3,0,114612242,0,67,0,128,1,"[67,48,4,0,-26,3,-27,4,-27,3,-28,2,-28,2,-28,2,-28,2,-28,3,-28,5,-29,5,-28,4,-28,5,-29,6,-30,7,-30,8,-30,8,-30,8,-30,8,-30,8,-30,8,-31,7,-31,8,-31,8,-32,8,-33,7,-9,1,0,0,0,0,0,0,0,0,0,0,0,0,0,0,0,0,0,0,3,-2,12,-5,11,-3,9,-3,8,-2,8,-2,8,-2,7,-1,7,0,6,0,3,0,0,0,-1,0,-2,1,-3,1,-5,1,-7,1,-8,1,-9,1,-11,1,-12,2,-13,2,-15,2,-17,3,-18,3,-20,4,-21,5]",58,0,89.5,61,-179.0,10,0,0,79,0,0,0,-5.0,0.0,-999.0
CSI_DATA,10677,60:60:1f:fd:0a:5b,-63,8,0,0,0,0,0,0,0,0,0,-89,0,3,0,114650365,0,67,0,128,1,"[67,48,4,0,16,15,16,16,16,18,16,18,16,18,16,18,16,18,16,18,17,18,18,18,17,17,18,17,19,17,20,17,20,16,21,16,21,17,21,17,21,17,21,17,21,17,21,17,22,18,22,19,22,20,5,5,0,0,0,0,0,0,0,0,0,0,0,0,0,0,0,0,0,0,-3,-2,-11,-6,-10,-6,-8,-6,-7,-6,-6,-6,-5,-6,-4,-5,-3,-5,-2,-4,-1,-3,0,-2,1,-1,2,0,3,1,4,2,5,3,5,3,6,4,7,5,7,6,8,7,9,8,11,9,12,10,13,11,14,11]",58,0,89.5,61,-179.0,10,0,0,79,0,0,0,-5.0,0.0,-999.0
CSI_DATA,10682,60:60:1f:fd:0a:5b,-63,9,0,0,0,0,0,0,0,0,0,-89,0,3,0,114684030,0,67,0,128,1,"[67,48,4,0,-23,0,-24,0,-24,0,-24,0,-25,0,-25,1,-25,1,-25,2,-25,3,-25,5,-25,6,-25,8,-25,9,-26,9,-26,10,-27,11,-27,10,-27,9,-27,9,-27,9,-26,10,-27,11,-27,10,-28,7,-28,5,-8,1,0,0,0,0,0,0,0,0,0,0,0,0,0,0,0,0,0,0,3,0,14,1,13,3,10,3,9,1,8,4,5,4,3,3,3,3,2,2,1,2,0,2,-1,2,-3,1,-4,0,-5,-1,-6,-1,-7,-1,-8,-2,-9,-2,-11,-2,-12,-2,-13,-2,-14,-2,-16,-1,-18,-1,-20,-1]",58,0,89.5,61,-179.0,10,0,0,79,0,0,0,-5.0,0.0,-999.0
CSI_DATA,10715,60:60:1f:fd:0a:5b,-63,9,0,0,0,0,0,0,0,0,0,-89,0,3,0,115064377,0,67,0,128,1,"[67,48,4,0,-20,11,-21,11,-21,11,-22,11,-22,12,-22,13,-22,13,-21,13,-20,14,-20,15,-20,17,-19,18,-19,20,-19,20,-19,21,-19,22,-20,21,-20,20,-21,19,-20,20,-20,20,-20,21,-21,20,-22,18,-24,17,-6,4,0,0,0,0,0,0,0,0,0,0,0,0,0,0,0,0,0,0,2,-2,9,-5,9,-5,9,-4,9,-3,8,-2,7,0,6,1,4,2,3,2,2,2,0,2,-1,2,-2,2,-4,2,-5,2,-6,2,-7,2,-8,2,-9,3,-10,4,-11,4,-12,5,-14,6,-15,7,-16,8,-17,8]",58,0,89.5,61,-179.0,10,0,0,79,0,0,0,-5.0,0.0,-999.0
CSI_DATA,10716,60:60:1f:fd:0a:5b,-63,8,0,0,0,0,0,0,0,0,0,-89,0,3,0,115079959,0,67,0,128,1,"[67,48,4,0,12,-20,13,-20,14,-20,15,-20,15,-20,15,-20,15,-20,15,-21,15,-22,15,-21,14,-21,14,-22,13,-23,13,-23,13,-24,13,-24,13,-24,13,-25,13,-25,12,-25,12,-25,12,-25,13,-25,14,-26,16,-27,4,-7,0,0,0,0,0,0,0,0,0,0,0,0,0,0,0,0,0,0,-3,2,-7,10,-4,9,-5,11,-4,12,-3,9,-4,6,-4,4,-3,2,-4,1,-4,0,-3,-1,-2,-2,-1,-3,0,-4,1,-5,1,-6,2,-6,3,-7,4,-8,4,-9,5,-10,6,-12,7,-13,8,-14,8,-16,8,-18]",58,0,89.5,61,-179.0,10,0,0,79,0,0,0,-5.0,0.0,-999.0
CSI_DATA,10718,60:60:1f:fd:0a:5b,-63,9,0,0,0,0,0,0,0,0,0,-89,0,3,0,115096419,0,67,0,128,1,"[67,48,4,0,8,-24,8,-25,9,-25,9,-25,9,-26,8,-27,8,-27,8,-27,7,-27,5,-29,6,-31,6,-35,3,-34,2,-31,2,-31,2,-33,3,-33,4,-32,5,-31,5,-31,4,-32,4,-32,5,-32,9,-31,11,-31,3,-8,0,0,0,0,0,0,0,0,0,0,0,0,0,0,0,0,0,0,-1,3,-2,12,-2,9,-3,10,-2,10,-3,8,-4,6,-4,4,-3,2,-4,1,-5,1,-4,-1,-2,-2,0,-3,0,-4,1,-5,1,-6,2,-7,3,-8,3,-10,4,-11,4,-12,5,-13,6,-15,6,-17,6,-19,7,-21]",58,0,90.0,61,-187.0,10,0,0,79,0,0,0,-4.0,-2.0,-999.0
CSI_DATA,10722,60:60:1f:fd:0a:5b,-63,8,0,0,0,0,0,0,0,0,0,-89,0,3,0,115164579,0,67,0,128,1,"[67,48,4,0,21,-6,22,-6,23,-5,23,-5,23,-5,23,-5,23,-5,23,-6,24,-7,24,-7,23,-8,23,-8,24,-9,24,-10,24,-10,24,-11,24,-11,25,-11,25,-12,24,-12,24,-11,24,-11,25,-11,26,-11,27,-11,6,-3,0,0,0,0,0,0,0,0,0,0,0,0,0,0,0,0,0,0,-3,0,-11,4,-11,3,-10,3,-9,2,-9,0,-8,0,-7,0,-6,-1,-5,-2,-4,-2,-2,-2,-1,-2,1,-2,2,-3,3,-3,4,-3,5,-3,7,-3,8,-3,9,-4,10,-4,12,-4,13,-5,15,-5,16,-6,18,-7]",58,0,90.0,61,-186.0,10,0,0,79,0,0,0,-4.0,0.0,-1000.0
CSI_DATA,10770,60:60:1f:fd:0a:5b,-63,8,0,0,0,0,0,0,0,0,0,-89,0,3,0,115685924,0,67,0,128,1,"[67,48,4,0,-22,-4,-23,-4,-23,-5,-24,-6,-24,-6,-24,-6,-24,-6,-25,-5,-25,-5,-26,-4,-26,-4,-26,-4,-26,-3,-27,-3,-27,-2,-28,-2,-28,-2,-28,-2,-28,-2,-28,-2,-28,-2,-28,-2,-29,-2,-30,-3,-31,-3,-8,-1,0,0,0,0,0,0,0,0,0,0,0,0,0,0,0,0,0,0,2,-1,11,-1,11,-1,11,0,10,0,8,1,7,1,6,1,5,1,4,1,3,1,2,1,0,1,-1,0,-2,0,-3,0,-4,0,-5,-1,-7,-1,-8,-1,-9,-1,-10,-1,-12,-2,-13,-2,-15,-2,-16,-1,-18,-1]",58,0,90.0,61,-183.0,10,0,0,79,0,0,0,-4.0,-2.0,-1000.0
CSI_DATA,10775,60:60:1f:fd:0a:5b,-63,13,0,0,0,0,0,0,0,0,0,-89,0,3,0,115746857,0,67,0,128,1,"[67,48,4,0,23,0,25,0,25,1,26,1,26,0,27,-1,27,-1,26,-1,26,-2,27,-4,27,-6,27,-7,28,-8,28,-8,29,-9,30,-10,31,-9,30,-7,30,-7,30,-7,30,-8,30,-8,31,-7,32,-5,33,-3,8,-1,0,0,0,0,0,0,0,0,0,0,0,0,0,0,0,0,0,0,-4,0,-14,2,-13,1,-13,0,-12,-1,-11,-3,-9,-4,-8,-4,-7,-4,-6,-3,-4,-3,-2,-2,-1,-1,-1,-1,1,-1,3,-1,5,0,5,1,6,1,7,1,9,1,11,1,12,1,14,1,16,0,18,0,20,1]",58,0,90.0,61,-181.0,10,0,0,79,0,0,0,-4.0,-1.0,-998.0
CSI_DATA,10802,60:60:1f:fd:0a:5b,-63,8,0,0,0,0,0,0,0,0,0,-89,0,3,0,116092895,0,67,0,128,1,"[67,48,4,0,-15,-15,-16,-16,-16,-17,-16,-18,-16,-17,-16,-17,-17,-17,-18,-17,-19,-17,-19,-17,-19,-17,-20,-16,-21,-16,-22,-16,-23,-16,-23,-16,-24,-17,-24,-17,-24,-17,-24,-17,-23,-17,-23,-17,-24,-17,-24,-18,-24,-19,-6,-5,0,0,0,0,0,0,0,0,0,0,0,0,0,0,0,0,0,0,2,1,10,6,9,6,7,6,6,6,5,6,5,6,4,5,3,4,2,4,1,3,1,2,0,1,-1,0,-1,-1,-2,-2,-3,-3,-4,-4,-4,-4,-5,-5,-6,-6,-7,-7,-8,-8,-9,-9,-10,-10,-12,-11,-13,-11]",58,0,90.0,61,-184.0,10,0,0,79,0,0,0,-4.0,-3.0,-1000.0
CSI_DATA,10803,60:60:1f:fd:0a:5b,-63,8,0,0,0,0,0,0,0,0,0,-89,0,3,0,116107665,0,67,0,128,1,"[67,48,4,0,19,-5,21,-5,22,-5,22,-4,22,-4,22,-4,23,-5,23,-5,23,-6,23,-7,23,-7,24,-8,24,-8,24,-8,25,-9,25,-9,26,-10,26,-10,26,-9,26,-9,26,-8,26,-8,27,-9,28,-8,29,-8,7,-2,0,0,0,0,0,0,0,0,0,0,0,0,0,0,0,0,0,0,-3,1,-9,7,-10,6,-9,5,-9,4,-8,3,-7,3,-7,2,-6,1,-5,1,-4,0,-3,0,-2,0,-1,-1,0,-1,2,-1,3,-2,4,-2,5,-2,6,-2,7,-3,9,-3,10,-4,12,-4,13,-4,14,-5,16,-6]",58,0,90.0,61,-186.0,10,0,0,79,0,0,0,-4.0,-1.0,-1002.0
CSI_DATA,10807,60:60:1f:fd:0a:5b,-63,9,0,0,0,0,0,0,0,0,0,-89,0,3,0,116176675,0,67,0,128,1,"[67,48,4,0,-3,-24,-4,-25,-3,-26,-3,-26,-4,-27,-5,-27,-5,-27,-5,-27,-6,-27,-8,-27,-9,-28,-10,-28,-12,-28,-13,-28,-13,-29,-14,-30,-14,-30,-12,-30,-12,-30,-12,-30,-13,-30,-14,-30,-13,-30,-10,-31,-7,-33,-2,-9,0,0,0,0,0,0,0,0,0,0,0,0,0,0,0,0,0,0,0,3,1,13,0,10,-1,10,-1,12,-2,10,-3,8,-3,7,-3,6,-3,5,-3,3,-2,1,-2,0,-1,-2,-1,-2,0,-3,-1,-5,0,-6,0,-7,0,-8,0,-10,-1,-12,-1,-13,-1,-15,-1,-17,-2,-19,-2,-21]",58,0,90.0,61,-183.0,10,0,0,79,0,0,0,-3.0,0.0,-999.0
CSI_DATA,10809,60:60:1f:fd:0a:5b,-63,9,0,0,0,0,0,0,0,0,0,-89,0,3,0,116201934,0,67,0,128,1,"[67,48,4,0,-22,-12,-23,-12,-23,-12,-24,-12,-25,-12,-25,-12,-26,-12,-26,-11,-26,-9,-27,-8,-28,-7,-31,-5,-30,-4,-30,-4,-32,-4,-33,-3,-33,-5,-33,-6,-32,-6,-32,-6,-32,-5,-33,-4,-33,-5,-32,-7,-31,-11,-8,-3,0,0,0,0,0,0,0,0,0,0,0,0,0,0,0,0,0,0,3,1,11,4,10,5,9,7,8,6,6,7,5,7,4,6,2,5,1,4,1,4,0,3,-1,1,-1,0,-2,-1,-3,-2,-4,-3,-4,-4,-5,-5,-7,-5,-8,-6,-9,-7,-11,-7,-14,-8,-16,-9,-17,-9,-18,-10]",58,0,90.0,61,-182.0,10,0,0,79,0,0,0,-2.0,-1.0,-1000.0
CSI_DATA,10845,60:60:1f:fd:0a:5b,-64,8,0,0,0,0,0,0,0,0,0,-89,0,3,0,116623868,0,67,0,128,1,"[67,48,4,0,31,7,30,8,30,9,29,9,28,10,27,10,25,10,24,10,23,9,22,10,21,10,21,8,18,7,16,6,14,5,13,4,12,3,11,1,10,0,9,-1,9,-2,9,-3,9,-4,9,-5,9,-5,2,-2,0,0,0,0,0,0,0,0,0,0,0,0,0,0,0,0,0,0,1,0,7,0,7,0,8,1,9,1,10,0,11,0,12,0,14,0,15,0,16,1,18,1,19,1,20,2,21,2,22,3,23,4,24,4,24,4,25,4,25,5,26,5,27,5,28,5,29,5,29,4,30,4]",58,0,90.0,61,-188.0,10,0,0,79,0,0,0,-3.0,-2.0,-999.0
CSI_DATA,10848,60:60:1f:fd:0a:5b,-64,8,0,0,0,0,0,0,0,0,0,-89,0,3,0,116650543,0,67,0,128,1,"[67,48,4,0,1,-29,1,-29,2,-29,3,-29,3,-27,3,-26,3,-25,3,-25,3,-24,3,-22,2,-20,2,-19,2,-17,2,-16,1,-15,0,-13,-1,-12,-2,-11,-3,-11,-4,-10,-5,-9,-5,-9,-5,-9,-6,-9,-6,-9,-2,-3,0,0,0,0,0,0,0,0,0,0,0,0,0,0,0,0,0,0,-1,-2,-2,-7,-1,-8,0,-9,0,-10,-1,-10,-1,-11,-2,-13,-2,-13,-2,-15,-2,-16,-2,-18,-1,-19,-1,-20,0,-20,0,-21,0,-23,0,-23,0,-24,0,-24,0,-25,0,-25,0,-26,-1,-27,-1,-27,0,-28,-1,-29]",58,0,90.0,61,-184.0,10,0,0,79,0,0,0,-4.0,-1.0,-1000.0
CSI_DATA,10850,60:60:1f:fd:0a:5b,-64,8,0,0,0,0,0,0,0,0,0,-89,0,3,0,116673327,0,67,0,128,1,"[67,48,4,0,9,27,8,26,8,26,7,26,7,25,6,24,6,23,5,23,5,22,4,20,4,18,4,18,3,16,3,15,4,13,4,12,4,10,5,9,5,7,6,6,6,6,7,5,7,5,8,5,8,4,2,1,0,0,0,0,0,0,0,0,0,0,0,0,0,0,0,0,0,0,0,1,2,4,1,5,1,6,1,6,2,7,4,8,5,10,5,11,6,12,6,13,6,14,7,15,7,16,7,17,7,19,7,19,7,20,8,20,8,21,8,21,8,21,9,22,9,23,9,24,9,23,10,22]",58,0,90.0,61,-186.0,10,0,0,79,0,0,0,-4.0,-2.0,-999.0
CSI_DATA,10853,60:60:1f:fd:0a:5b,-64,8,0,0,0,0,0,0,0,0,0,-89,0,3,0,116692842,0,67,0,128,1,"[67,48,4,0,34,-4,34,-3,34,-3,34,-2,32,-1,31,-1,30,0,29,0,28,0,27,1,22,2,18,2,20,2,19,0,17,-1,15,-2,13,-3,12,-4,11,-5,10,-6,9,-7,8,-8,8,-8,8,-9,8,-10,2,-3,0,0,0,0,0,0,0,0,0,0,0,0,0,0,0,0,0,0,1,-1,8,-1,8,-1,9,-1,9,-2,10,-2,12,-3,14,-4,15,-4,16,-4,17,-4,19,-4,21,-4,22,-4,23,-4,24,-4,25,-4,26,-3,27,-3,28,-3,28,-3,29,-3,30,-4,31,-4,31,-5,32,-5,33,-5]",58,0,90.0,61,-186.0,10,0,0,79,0,0,0,-4.0,-1.0,-1001.0
CSI_DATA,10908,60:60:1f:fd:0a:5b,-65,8,0,0,0,0,0,0,0,0,0,-89,0,3,0,117221897,0,67,0,128,1,"[67,48,4,0,25,12,24,12,24,13,23,13,22,13,21,13,20,13,19,13,17,12,16,11,14,10,12,9,11,7,11,6,10,5,9,3,8,2,8,0,7,-2,6,-3,6,-4,7,-5,7,-5,8,-5,10,-5,2,-2,0,0,0,0,0,0,0,0,0,0,0,0,0,0,0,0,0,0,1,0,7,2,8,2,8,3,8,3,9,4,11,4,12,4,12,5,13,5,14,6,15,7,16,8,16,8,16,9,17,10,18,10,18,10,19,10,19,11,19,11,20,10,21,10,22,10,22,10,23,10,24,9]",58,0,90.0,61,-186.0,10,0,0,79,0,0,0,-3.0,-2.0,-999.0
CSI_DATA,10914,60:60:1f:fd:0a:5b,-66,8,0,0,0,0,0,0,0,0,0,-89,0,3,0,117273566,0,67,0,128,1,"[67,48,4,0,32,-2,33,-1,33,0,32,0,31,1,30,2,28,2,27,2,25,2,24,2,22,2,20,3,18,2,15,1,13,0,11,-2,10,-3,8,-4,7,-6,8,-7,8,-6,6,-7,4,-9,5,-11,6,-11,1,-3,0,0,0,0,0,0,0,0,0,0,0,0,0,0,0,0,0,0,1,-1,7,-2,8,-2,9,-2,10,-1,12,-2,13,-3,14,-2,15,-2,17,-2,18,-1,20,-1,21,0,22,0,22,1,23,1,23,1,24,1,24,1,24,1,25,0,25,0,26,-1,27,-2,28,-2,29,-3,30,-4]",58,0,90.0,61,-179.0,10,0,0,79,0,0,0,-5.0,-2.0,-1000.0
CSI_DATA,10946,60:60:1f:fd:0a:5b,-65,8,0,0,0,0,0,0,0,0,0,-89,0,3,0,117590845,0,67,0,128,1,"[67,48,4,0,11,31,11,32,10,32,8,31,7,31,6,30,5,29,4,27,4,26,4,24,3,21,2,19,2,17,2,14,2,12,2,9,3,7,4,5,5,3,7,2,8,1,8,0,9,-1,11,-1,12,0,3,0,0,0,0,0,0,0,0,0,0,0,0,0,0,0,0,0,0,0,1,2,5,11,5,12,6,13,7,14,8,13,6,14,6,16,6,18,6,20,6,21,6,22,6,23,6,24,5,24,5,26,5,27,5,26,5,26,5,26,5,26,6,26,8,27,9,27,10,27,11,28,13,28]",58,0,90.0,61,-182.0,10,0,0,79,0,0,0,-2.0,-1.0,-1000.0
CSI_DATA,10948,60:60:1f:fd:0a:5b,-65,8,0,0,0,0,0,0,0,0,0,-89,0,3,0,117617289,0,67,0,128,1,"[67,48,4,0,15,22,14,22,14,23,13,22,12,22,11,21,10,21,9,20,8,19,7,18,7,16,6,13,5,11,4,10,4,9,3,6,3,4,3,2,3,0,4,-1,5,-2,5,-3,6,-3,6,-4,7,-4,1,-1,0,0,0,0,0,0,0,0,0,0,0,0,0,0,0,0,0,0,1,2,4,9,4,8,5,8,6,9,7,10,8,12,8,12,8,13,8,14,8,15,9,16,9,17,9,18,8,18,8,18,9,19,9,19,9,19,10,19,10,19,11,19,12,19,13,20,13,20,15,20,15,20]",58,0,90.0,61,-183.0,10,0,0,79,0,0,0,-3.0,-2.0,-1001.0
CSI_DATA,10951,60:60:1f:fd:0a:5b,-66,9,0,0,0,0,0,0,0,0,0,-89,0,3,0,117652245,0,67,0,128,1,"[67,48,4,0,35,5,35,5,34,7,33,7,32,7,32,7,30,7,28,8,26,8,25,7,28,6,28,8,21,8,15,6,12,3,10,3,8,1,6,-1,4,-2,4,-4,3,-7,3,-8,3,-9,5,-9,6,-8,1,-2,0,0,0,0,0,0,0,0,0,0,0,0,0,0,0,0,0,0,3,0,12,1,15,3,18,4,17,3,15,4,15,7,19,8,20,8,20,8,22,10,23,11,23,11,24,12,24,12,23,12,23,12,23,12,24,12,25,11,26,10,27,9,28,8,29,7,30,6,32,5,32,5]",58,0,90.0,61,-184.0,10,0,0,79,0,0,0,-3.0,-1.0,-999.0
CSI_DATA,10990,60:60:1f:fd:0a:5b,-64,8,0,0,0,0,0,0,0,0,0,-89,0,3,0,118063846,0,67,0,128,1,"[67,48,4,0,-8,-35,-7,-35,-7,-35,-5,-35,-4,-34,-4,-33,-3,-32,-2,-32,-2,-31,-2,-29,-2,-27,-1,-24,0,-23,0,-21,0,-18,-1,-16,-1,-14,-2,-12,-3,-10,-4,-9,-4,-7,-5,-6,-5,-6,-6,-5,-6,-5,-2,-2,0,0,0,0,0,0,0,0,0,0,0,0,0,0,0,0,0,0,0,-2,0,-7,-1,-8,-1,-9,0,-9,0,-10,-1,-11,-2,-12,-1,-14,0,-15,-1,-16,-2,-18,-2,-19,-2,-20,-2,-21,-2,-22,-2,-23,-2,-23,-3,-24,-3,-24,-4,-25,-5,-25,-6,-27,-7,-28,-8,-29,-9,-30,-10,-31]",58,0,90.0,61,-186.0,10,0,0,79,0,0,0,-2.0,0.0,-999.0
CSI_DATA,10991,60:60:1f:fd:0a:5b,-64,8,0,0,0,0,0,0,0,0,0,-89,0,3,0,118082142,0,67,0,128,1,"[67,48,4,0,36,8,36,9,36,10,36,11,34,12,33,12,32,12,30,12,29,12,27,12,23,11,20,11,20,10,19,9,17,8,14,6,13,5,11,3,10,2,9,0,8,-1,8,-3,7,-5,7,-5,7,-5,2,-2,0,0,0,0,0,0,0,0,0,0,0,0,0,0,0,0,0,0,1,1,6,4,7,4,8,3,8,4,9,4,10,4,12,5,13,5,14,5,16,6,17,6,18,7,19,7,20,8,21,8,22,9,23,8,23,8,24,8,25,8,26,8,27,7,29,6,31,6,32,5,34,5]",58,0,90.0,61,-182.0,10,0,0,79,0,0,0,-2.0,-2.0,-1000.0
CSI_DATA,10995,60:60:1f:fd:0a:5b,-64,8,0,0,0,0,0,0,0,0,0,-89,0,3,0,118116004,0,67,0,128,1,"[67,48,4,0,-20,24,-21,23,-22,23,-22,22,-22,21,-22,20,-22,19,-21,17,-20,17,-19,15,-18,14,-17,12,-16,11,-15,10,-13,8,-11,7,-9,7,-8,6,-6,6,-5,6,-3,6,-2,6,-1,6,0,6,0,6,0,1,0,0,0,0,0,0,0,0,0,0,0,0,0,0,0,0,0,0,-2,1,-6,4,-6,3,-7,4,-7,5,-8,5,-8,6,-9,7,-9,8,-10,9,-10,10,-11,11,-12,11,-13,12,-13,12,-14,12,-15,13,-15,14,-15,14,-15,15,-15,16,-15,17,-15,18,-16,20,-15,21,-15,22,-16,23]",58,0,90.0,61,-181.0,10,0,0,79,0,0,0,-4.0,-2.0,-1002.0
CSI_DATA,10997,60:60:1f:fd:0a:5b,-64,8,0,0,0,0,0,0,0,0,0,-89,0,3,0,118135429,0,67,0,128,1,"[67,48,4,0,33,4,33,5,33,6,32,7,31,7,30,7,29,8,28,8,26,8,25,8,23,8,21,8,18,7,16,6,14,5,12,4,11,3,10,2,8,0,7,-1,6,-2,6,-3,5,-4,5,-5,5,-5,1,-2,0,0,0,0,0,0,0,0,0,0,0,0,0,0,0,0,0,0,1,0,7,3,7,3,7,3,8,3,9,3,10,3,11,3,12,3,13,3,14,3,16,4,17,4,18,4,18,5,19,5,20,5,21,5,21,5,22,4,23,4,24,3,25,2,27,2,28,2,29,1,30,0]",58,0,90.0,61,-190.0,10,0,0,79,0,0,0,-4.0,-2.0,-999.0
CSI_DATA,11041,60:60:1f:fd:0a:5b,-67,13,0,0,0,0,0,0,0,0,0,-89,0,3,0,118583486,0,67,0,128,1,"[67,48,4,0,30,-4,30,-3,30,-3,30,-2,30,-2,29,-1,28,0,27,0,25,1,24,1,22,1,20,2,18,2,16,2,14,2,12,1,10,1,8,0,6,-1,5,-2,4,-4,3,-5,3,-6,3,-6,3,-6,0,-2,0,0,0,0,0,0,0,0,0,0,0,0,0,0,0,0,0,0,1,-1,7,-1,7,-1,8,0,8,0,9,0,9,0,10,1,11,1,12,1,14,1,14,2,15,2,16,3,17,2,18,2,18,3,18,3,19,3,20,2,20,1,21,0,22,-1,23,-2,24,-3,26,-4,27,-4]",58,0,90.0,61,-193.0,10,0,0,79,0,0,0,-4.0,0.0,-997.0
CSI_DATA,11043,60:60:1f:fd:0a:5b,-67,9,0,0,0,0,0,0,0,0,0,-89,0,3,0,118609581,0,67,0,128,1,"[67,48,4,0,-32,-23,-31,-25,-29,-27,-29,-26,-28,-27,-27,-26,-25,-26,-24,-26,-21,-25,-20,-24,-20,-23,-19,-21,-17,-20,-14,-18,-11,-16,-9,-13,-8,-9,-8,-7,-9,-6,-9,-4,-9,-2,-9,0,-8,1,-9,1,-9,0,-3,0,0,0,0,0,0,0,0,0,0,0,0,0,0,0,0,0,0,0,-4,-1,-12,-2,-6,-5,-4,-7,-8,-5,-9,-4,-6,-6,-8,-11,-11,-13,-11,-13,-11,-14,-12,-16,-13,-16,-14,-16,-16,-17,-15,-19,-15,-19,-15,-19,-15,-19,-17,-18,-19,-18,-21,-18,-22,-18,-23,-19,-25,-19,-27,-20,-29,-20]",58,0,90.0,61,-191.0,10,0,0,79,0,0,0,-4.0,-1.0,-1001.0
CSI_DATA,11045,60:60:1f:fd:0a:5b,-66,8,0,0,0,0,0,0,0,0,0,-89,0,3,0,118624380,0,67,0,128,1,"[67,48,4,0,-27,26,-29,26,-29,26,-30,24,-30,23,-30,21,-30,20,-29,19,-27,18,-25,17,-24,17,-23,18,-22,13,-20,10,-17,9,-14,7,-11,6,-9,6,-6,6,-4,6,-2,7,0,7,1,8,1,8,2,8,0,2,0,0,0,0,0,0,0,0,0,0,0,0,0,0,0,0,0,0,-2,1,-7,4,-8,3,-9,4,-10,5,-10,5,-11,5,-12,4,-12,6,-12,8,-14,9,-15,11,-16,11,-17,11,-17,12,-19,13,-20,13,-21,14,-21,14,-21,15,-21,16,-22,17,-22,18,-22,20,-22,21,-22,23,-23,24]",58,0,90.0,61,-186.0,10,0,0,79,0,0,0,-4.0,-1.0,-998.0
CSI_DATA,11082,60:60:1f:fd:0a:5b,-66,8,0,0,0,0,0,0,0,0,0,-89,0,3,0,119053083,0,67,0,128,1,"[67,48,4,0,25,17,25,18,25,19,24,19,23,19,22,19,21,19,20,18,19,18,17,17,15,16,13,14,12,12,11,11,10,10,7,7,6,6,6,4,6,1,5,0,5,-2,6,-3,6,-4,6,-5,6,-6,1,-2,0,0,0,0,0,0,0,0,0,0,0,0,0,0,0,0,0,0,1,1,6,6,5,6,5,6,5,6,6,7,6,7,7,8,8,8,10,8,11,9,11,11,11,12,11,12,12,12,13,13,14,13,14,13,15,14,16,14,16,14,16,13,18,13,20,13,21,13,23,14,24,14]",58,0,90.0,61,-186.0,10,0,0,79,0,0,0,-4.0,-1.0,-1000.0
CSI_DATA,11092,60:60:1f:fd:0a:5b,-58,8,0,0,0,0,0,0,0,0,0,-89,0,3,0,119161084,0,67,0,128,1,"[67,48,4,0,-28,8,-29,7,-30,7,-31,6,-31,6,-31,6,-32,6,-32,7,-33,7,-33,7,-32,7,-32,6,-32,7,-32,7,-32,8,-32,8,-32,8,-31,8,-30,7,-30,7,-29,7,-28,7,-28,7,-29,8,-29,7,-8,1,0,0,0,0,0,0,0,0,0,0,0,0,0,0,0,0,0,0,1,-2,7,-8,7,-7,6,-6,6,-5,5,-4,5,-3,4,-3,3,-2,2,-2,1,-2,0,-1,-2,-1,-3,-1,-4,0,-5,0,-6,1,-8,1,-9,2,-10,2,-12,3,-13,4,-15,5,-17,5,-19,6,-20,8,-21,9]",58,0,90.0,61,-185.0,10,0,0,79,0,0,0,-4.0,-1.0,-1001.0
CSI_DATA,11103,60:60:1f:fd:0a:5b,-58,8,0,0,0,0,0,0,0,0,0,-89,0,3,0,119262277,0,67,0,128,1,"[67,48,4,0,1,-25,2,-26,3,-27,4,-27,4,-27,4,-28,4,-28,3,-28,3,-29,3,-29,4,-29,4,-29,4,-30,3,-30,3,-29,3,-29,3,-29,3,-29,3,-28,3,-28,3,-27,3,-26,3,-27,3,-27,3,-28,0,-7,0,0,0,0,0,0,0,0,0,0,0,0,0,0,0,0,0,0,1,2,5,8,4,8,3,8,3,7,2,6,2,5,2,5,2,4,1,3,1,2,1,1,1,0,1,-1,1,-2,1,-4,1,-5,1,-6,1,-7,1,-9,0,-10,0,-11,0,-13,0,-15,0,-17,-1,-19,-1,-21]",58,0,90.0,61,-185.0,10,0,0,79,0,0,0,-4.0,-1.0,-999.0
CSI_DATA,11113,60:60:1f:fd:0a:5b,-58,8,0,0,0,0,0,0,0,0,0,-89,0,3,0,119363104,0,67,0,128,1,"[67,48,4,0,-23,-18,-24,-19,-24,-20,-24,-21,-24,-21,-24,-21,-25,-22,-26,-22,-26,-22,-26,-22,-26,-22,-26,-22,-26,-22,-27,-22,-26,-21,-26,-21,-26,-21,-26,-21,-25,-20,-25,-20,-24,-19,-24,-19,-24,-19,-24,-19,-25,-20,-7,-5,0,0,0,0,0,0,0,0,0,0,0,0,0,0,0,0,0,0,2,0,10,1,10,1,8,1,7,0,6,1,6,1,5,1,4,1,3,0,2,-1,0,-1,-1,-2,-2,-3,-3,-3,-4,-4,-5,-5,-7,-6,-8,-6,-9,-7,-10,-7,-11,-8,-13,-9,-15,-11,-17,-11,-19,-12,-20,-13]",58,0,90.0,61,-185.0,10,0,0,79,0,0,0,-5.0,-2.0,-1000.0
CSI_DATA,11123,60:60:1f:fd:0a:5b,-59,8,0,0,0,0,0,0,0,0,0,-89,0,3,0,119482701,0,67,0,128,1,"[67,48,4,0,-7,26,-7,27,-8,28,-9,28,-9,28,-10,28,-10,28,-10,29,-9,29,-9,30,-10,29,-10,29,-9,29,-9,30,-9,29,-9,29,-9,29,-8,29,-8,28,-8,28,-8,27,-8,27,-8,27,-8,27,-9,28,-3,6,0,0,0,0,0,0,0,0,0,0,0,0,0,0,0,0,0,0,-2,-2,-7,-9,-6,-9,-5,-9,-4,-8,-4,-7,-4,-7,-4,-6,-4,-5,-3,-4,-3,-3,-3,-2,-3,-1,-3,1,-3,2,-3,3,-3,5,-3,6,-3,7,-3,9,-3,10,-3,12,-4,14,-4,16,-4,18,-3,20,-3,21]",58,0,90.0,61,-185.0,10,0,0,79,0,0,0,-1.0,-2.0,-998.0
CSI_DATA,11134,60:60:1f:fd:0a:5b,-57,8,0,0,0,0,0,0,0,0,0,-89,0,3,0,119588171,0,67,0,128,1,"[67,48,4,0,16,18,16,19,16,20,16,21,16,22,16,22,16,22,17,22,17,22,17,22,17,22,17,22,17,22,18,21,18,21,18,20,18,20,18,20,18,19,18,18,17,17,17,17,18,17,19,17,19,17,4,4,0,0,0,0,0,0,0,0,0,0,0,0,0,0,0,0,0,0,-4,-2,-15,-5,-14,-5,-13,-5,-12,-5,-11,-5,-10,-6,-9,-6,-8,-6,-7,-5,-6,-5,-5,-4,-4,-3,-3,-3,-1,-2,0,-1,1,0,2,1,3,3,4,4,6,5,7,7,8,8,10,9,11,11,13,12,14,13]",58,0,90.0,61,-185.0,10,0,0,78,0,0,0,-1.0,9.0,-1000.0
CSI_DATA,11143,60:60:1f:fd:0a:5b,-57,8,0,0,0,0,0,0,0,0,0,-89,0,3,0,119691633,0,67,0,128,1,"[67,48,4,0,-1,-25,0,-26,1,-27,2,-27,2,-27,2,-28,3,-28,2,-28,1,-29,1,-29,1,-28,0,-28,-1,-28,-2,-28,-3,-27,-5,-26,-6,-26,-8,-26,-9,-26,-10,-25,-11,-25,-12,-25,-14,-26,-16,-26,-17,-27,-5,-7,0,0,0,0,0,0,0,0,0,0,0,0,0,0,0,0,0,0,-6,0,-21,0,-21,-1,-21,-2,-21,-3,-21,-3,-20,-4,-20,-4,-19,-5,-19,-5,-18,-6,-17,-7,-17,-7,-15,-8,-14,-9,-13,-9,-12,-10,-11,-10,-10,-11,-9,-12,-8,-12,-8,-13,-7,-15,-6,-16,-5,-18,-5,-19,-5,-21]",58,0,90.0,61,-185.0,10,0,0,78,0,0,0,-12.0,-5.0,-1000.0
CSI_DATA,11156,60:60:1f:fd:0a:5b,-56,8,0,0,0,0,0,0,0,0,0,-89,0,3,0,119795816,0,67,0,128,1,"[67,48,4,0,-16,21,-17,21,-17,21,-17,20,-17,20,-17,19,-17,19,-16,19,-16,19,-16,19,-16,18,-16,17,-15,17,-14,18,-13,18,-13,18,-13,18,-12,18,-12,18,-12,18,-12,18,-13,18,-13,18,-14,18,-15,19,-4,4,0,0,0,0,0,0,0,0,0,0,0,0,0,0,0,0,0,0,-2,1,-6,5,-6,5,-6,5,-6,6,-6,6,-6,7,-6,8,-6,9,-7,9,-7,10,-8,11,-8,11,-8,11,-9,11,-9,12,-9,13,-9,13,-9,13,-9,14,-10,15,-10,16,-11,18,-12,19,-12,20,-12,21,-12,22]",58,0,90.0,61,-185.0,10,0,0,77,0,0,2,-5.0,0.0,-952.0
CSI_DATA,11167,60:60:1f:fd:0a:5b,-56,13,0,0,0,0,0,0,0,0,0,-89,0,3,0,119897502,0,67,0,128,1,"[67,48,4,0,22,-2,22,-2,22,-2,21,-2,21,-3,21,-4,20,-4,19,-4,18,-4,18,-5,17,-5,16,-5,16,-6,15,-5,15,-4,14,-4,13,-4,12,-3,10,-2,10,-2,8,-2,7,-2,6,-2,5,-1,4,-1,1,-1,0,0,0,0,0,0,0,0,0,0,0,0,0,0,0,0,0,0,4,0,19,1,21,2,22,3,22,5,23,7,23,9,22,11,22,13,21,14,21,15,20,15,19,14,18,14,17,14,17,12,17,11,16,10,16,10,17,8,18,7,19,5,19,4,20,4,21,2,23,1,23,1]",58,0,90.0,61,-185.0,10,0,0,77,0,0,5,-3.0,9.0,-1148.0
CSI_DATA,11175,60:60:1f:fd:0a:5b,-62,8,0,0,0,0,0,0,0,0,0,-89,0,3,0,120005756,0,67,0,128,1,"[67,48,4,0,23,10,22,10,21,10,20,11,19,11,18,10,17,10,16,10,16,10,15,9,14,9,14,9,14,10,14,10,13,10,13,10,12,11,12,11,11,11,10,11,9,12,8,12,8,12,7,12,7,11,1,2,0,0,0,0,0,0,0,0,0,0,0,0,0,0,0,0,0,0,5,3,21,14,21,12,20,11,20,10,23,10,23,10,23,10,25,11,25,11,24,11,24,11,24,11,24,11,24,11,24,10,24,9,24,9,25,9,24,9,24,9,24,8,25,8,25,8,25,8,25,8,25,7]",58,10,90.0,62,-149.0,25,0,0,77,0,0,7,-34.0,19.0,-1168.0
CSI_DATA,11183,60:60:1f:fd:0a:5b,-69,8,0,0,0,0,0,0,0,0,0,-89,0,3,0,120118623,0,67,0,128,1,"[67,48,4,0,15,24,16,23,16,23,16,22,16,20,16,18,16,16,17,14,17,13,18,11,17,10,15,9,15,7,14,6,13,4,11,3,10,1,8,0,6,-2,5,-3,3,-4,2,-5,0,-6,-1,-7,-2,-7,-1,-2,0,0,0,0,0,0,0,0,0,0,0,0,0,0,0,0,0,0,0,-6,4,-24,5,-23,5,-22,6,-21,7,-19,8,-18,8,-16,9,-14,9,-12,10,-10,10,-7,9,-5,9,-2,9,1,9,4,9,6,9,8,9,10,10,12,10,14,11,15,12,17,14,19,14,20,15,22,16,22]",58,20,90.0,62,-137.0,34,0,0,77,0,0,7,-14.0,6.0,-1107.0
CSI_DATA,11193,60:60:1f:fd:0a:5b,-64,8,0,0,0,0,0,0,0,0,0,-89,0,3,0,120222358,0,67,0,128,1,"[67,48,4,0,0,24,0,23,0,23,0,22,0,21,0,20,1,19,1,17,2,17,2,16,2,14,4,12,5,13,5,13,5,12,5,11,6,11,6,11,5,10,5,10,5,9,4,9,4,8,4,7,4,6,1,1,0,0,0,0,0,0,0,0,0,0,0,0,0,0,0,0,0,0,1,6,5,25,4,25,2,25,2,25,1,25,0,26,0,26,-1,26,-1,26,-2,26,-2,26,-2,26,-2,26,-2,26,-2,26,-2,27,-2,27,-2,27,-3,27,-3,26,-3,26,-2,25,-2,25,-1,25,0,25,1,25]",58,30,90.0,62,-129.0,42,0,0,77,0,0,7,5.0,-1.0,-1021.0
CSI_DATA,11198,60:60:1f:fd:0a:5b,-60,8,0,0,0,0,0,0,0,0,0,-89,0,3,0,120359664,0,67,0,128,1,"[67,48,4,0,5,-13,4,-14,2,-15,1,-16,-1,-18,-2,-19,-3,-20,-3,-22,-3,-23,-3,-23,-5,-21,-7,-23,-6,-26,-4,-27,-5,-26,-6,-26,-6,-27,-6,-28,-6,-28,-5,-29,-5,-29,-4,-29,-4,-29,-3,-30,-2,-30,-1,-8,0,0,0,0,0,0,0,0,0,0,0,0,0,0,0,0,0,0,3,-3,15,-9,15,-9,15,-9,15,-10,15,-11,17,-12,18,-13,19,-14,20,-13,21,-13,23,-13,24,-13,24,-11,24,-10,24,-9,23,-9,22,-8,20,-7,19,-7,17,-8,16,-8,15,-8,14,-9,13,-10,12,-11,10,-12]",58,30,90.0,62,-123.0,49,0,0,77,0,0,6,0.0,5.0,-932.0
CSI_DATA,11207,60:60:1f:fd:0a:5b,-63,8,0,0,0,0,0,0,0,0,0,-89,0,3,0,120486688,0,67,0,128,1,"[67,48,4,0,22,-1,23,-2,23,-2,23,-3,24,-4,25,-6,26,-7,27,-8,28,-9,29,-9,29,-8,29,-8,29,-8,29,-8,28,-8,26,-8,25,-8,23,-9,22,-9,20,-10,19,-11,18,-12,17,-14,17,-15,17,-16,4,-4,0,0,0,0,0,0,0,0,0,0,0,0,0,0,0,0,0,0,-3,-3,-8,-9,-5,-10,-3,-12,-4,-13,-4,-15,-1,-16,-1,-15,-1,-15,2,-15,4,-14,5,-13,6,-13,7,-11,8,-10,10,-10,11,-10,12,-8,14,-6,15,-5,16,-4,17,-3,18,-2,19,-1,20,-1,21,-2,22,-2]",58,40,90.5,62,-112.99999999999999,55,0,0,77,0,0,5,-10.0,14.0,-865.0
CSI_DATA,11218,60:60:1f:fd:0a:5b,-59,8,0,0,0,0,0,0,0,0,0,-89,0,3,0,120589676,0,67,0,128,1,"[67,48,4,0,-8,-26,-8,-27,-7,-27,-7,-27,-7,-27,-6,-26,-6,-26,-5,-25,-5,-25,-5,-24,-4,-23,-4,-21,-4,-21,-5,-20,-5,-20,-6,-19,-6,-19,-6,-19,-5,-19,-5,-19,-4,-19,-3,-19,-2,-19,-1,-18,0,-17,0,-5,0,0,0,0,0,0,0,0,0,0,0,0,0,0,0,0,0,0,0,-4,1,-13,0,-14,-1,-14,-2,-15,-3,-16,-4,-17,-4,-19,-5,-20,-5,-21,-5,-22,-5,-24,-5,-25,-4,-25,-4,-26,-4,-27,-4,-28,-3,-28,-2,-28,-2,-28,-2,-27,-2,-25,-3,-25,-3,-25,-4,-26,-6,-26,-7,-26]",58,50,90.5,62,-103.0,63,0,0,77,0,0,4,7.0,9.0,-897.0
CSI_DATA,11225,60:60:1f:fd:0a:5b,-58,8,0,0,0,0,0,0,0,0,0,-89,0,3,0,120694102,0,67,0,128,1,"[67,48,4,0,-24,1,-25,1,-26,1,-26,1,-27,1,-27,1,-27,1,-28,2,-28,3,-29,4,-29,3,-29,3,-30,3,-31,3,-31,3,-32,2,-32,1,-32,0,-32,-1,-31,-3,-30,-4,-29,-5,-28,-6,-28,-7,-27,-8,-7,-2,0,0,0,0,0,0,0,0,0,0,0,0,0,0,0,0,0,0,-3,-4,-10,-14,-10,-14,-10,-13,-9,-12,-9,-12,-9,-12,-10,-12,-10,-11,-10,-11,-11,-11,-12,-10,-12,-9,-13,-9,-13,-9,-14,-8,-16,-8,-17,-7,-17,-7,-17,-7,-17,-8,-17,-7,-17,-6,-18,-5,-19,-3,-20,-1,-21,0]",58,50,90.5,62,-102.0,67,0,-1,77,0,0,3,-18.0,13.0,-905.0
CSI_DATA,11234,60:60:1f:fd:0a:5b,-63,9,0,0,0,0,0,0,0,0,0,-89,0,3,0,120813501,0,67,0,128,1,"[67,48,4,0,12,4,14,4,15,5,16,5,17,5,19,5,20,4,21,4,22,3,23,2,25,1,26,0,28,-1,29,-1,30,-2,31,-2,32,-1,31,0,29,1,28,1,27,-1,26,-1,25,0,23,1,22,2,5,0,0,0,0,0,0,0,0,0,0,0,0,0,0,0,0,0,0,0,2,-1,10,-4,10,-4,10,-4,10,-4,10,-3,10,-2,11,-2,11,-1,11,0,11,0,10,0,9,1,8,1,7,1,6,2,5,2,4,2,4,1,4,1,4,1,4,1,5,1,6,1,7,1,8,2,9,2]",58,50,90.5,62,-97.0,70,0,0,77,0,0,2,5.0,-1.0,-913.0
CSI_DATA,11242,60:60:1f:fd:0a:5b,-63,8,0,0,0,0,0,0,0,0,0,-89,0,3,0,120920241,0,67,0,128,1,"[67,48,4,0,-12,19,-12,19,-13,19,-13,18,-12,18,-12,18,-12,18,-11,18,-11,19,-11,19,-12,18,-12,18,-13,18,-13,18,-14,17,-14,16,-15,15,-15,14,-15,12,-15,10,-14,9,-13,8,-12,8,-12,7,-11,7,-3,1,0,0,0,0,0,0,0,0,0,0,0,0,0,0,0,0,0,0,-3,0,-7,2,-6,1,-6,3,-6,5,-6,4,-7,4,-8,5,-9,5,-12,5,-14,4,-14,5,-14,7,-15,8,-15,7,-15,7,-15,8,-15,9,-14,9,-13,9,-13,10,-13,11,-13,13,-13,14,-13,16,-12,17,-12,18]",58,60,90.5,63,-95.0,75,0,0,77,0,0,1,-5.0,10.0,-932.0
CSI_DATA,11253,60:60:1f:fd:0a:5b,-61,13,0,0,0,0,0,0,0,0,0,-89,0,3,0,121025729,0,67,0,128,1,"[67,48,4,0,3,27,4,27,3,27,3,27,4,27,5,27,5,27,5,26,6,26,7,25,7,25,7,25,7,26,5,26,5,26,4,25,1,24,-2,22,-3,20,-4,18,-4,17,-4,15,-4,13,-5,10,-6,9,-2,2,0,0,0,0,0,0,0,0,0,0,0,0,0,0,0,0,0,0,0,1,1,4,0,6,0,7,-1,8,-1,9,-2,9,-3,10,-4,11,-4,12,-5,13,-5,15,-5,15,-5,16,-6,17,-6,17,-6,18,-7,18,-7,18,-6,19,-6,20,-5,20,-4,21,-3,22,-1,23,0,25,0,26]",58,60,90.5,63,-95.0,76,0,0,77,0,0,0,1.0,5.0,-923.0
CSI_DATA,11263,60:60:1f:fd:0a:5b,-62,8,0,0,0,0,0,0,0,0,0,-89,0,3,0,121132606,0,67,0,128,1,"[67,48,4,0,3,24,3,25,3,25,3,25,3,25,4,25,4,25,4,26,4,26,4,26,3,26,3,26,3,27,3,27,2,27,2,27,1,26,0,25,0,24,-1,22,-1,21,-2,19,-2,18,-2,17,-2,17,-1,4,0,0,0,0,0,0,0,0,0,0,0,0,0,0,0,0,0,0,0,4,2,18,4,15,3,14,-2,15,-2,16,1,16,1,15,-1,16,-1,19,-1,21,0,22,-1,23,-2,22,-2,21,-3,21,-2,21,-2,21,-3,21,-3,21,-3,21,-2,21,-1,21,-1,21,0,22,1,22,3,22]",58,60,90.5,63,-93.0,77,0,0,77,0,0,0,23.0,9.0,-995.0
CSI_DATA,11273,60:60:1f:fd:0a:5b,-58,8,0,0,0,0,0,0,0,0,0,-89,0,3,0,121244548,0,67,0,128,1,"[67,48,4,0,0,-29,1,-28,1,-27,2,-25,1,-24,1,-22,1,-21,1,-20,0,-19,0,-18,0,-16,0,-15,0,-13,1,-12,0,-11,0,-10,0,-8,0,-7,-1,-6,-1,-6,-2,-5,-2,-5,-2,-5,-2,-5,-2,-5,-1,-2,0,0,0,0,0,0,0,0,0,0,0,0,0,0,0,0,0,0,-1,-5,-2,-20,-1,-21,-1,-22,0,-23,0,-24,1,-25,1,-26,2,-27,2,-28,3,-30,2,-31,3,-32,4,-32,5,-31,6,-31,6,-32,6,-31,6,-30,5,-30,5,-30,4,-29,4,-30,3,-29,2,-29,0,-30,-1,-30]",58,60,90.5,63,-86.0,78,0,0,77,0,0,0,-6.0,14.0,-988.0
CSI_DATA,11282,60:60:1f:fd:0a:5b,-58,8,0,0,0,0,0,0,0,0,0,-89,0,3,0,121350345,0,67,0,128,1,"[67,48,4,0,-24,7,-24,7,-24,7,-24,7,-24,7,-24,7,-24,7,-24,7,-24,7,-24,6,-24,5,-24,4,-24,4,-23,3,-22,2,-22,1,-21,0,-19,0,-18,-1,-17,-1,-16,-1,-15,-1,-15,-1,-15,-1,-15,-1,-4,-1,0,0,0,0,0,0,0,0,0,0,0,0,0,0,0,0,0,0,-4,0,-15,0,-15,-1,-16,-1,-17,-1,-17,-1,-18,-1,-19,-1,-20,-1,-21,-1,-22,-1,-24,-1,-25,-2,-25,-3,-24,-4,-24,-4,-25,-3,-24,-3,-23,-3,-23,-3,-22,-2,-22,-1,-22,0,-22,1,-22,2,-22,4,-22,6]",58,60,90.5,63,-88.0,78,0,0,77,0,0,0,23.0,15.0,-1010.0
CSI_DATA,11293,60:60:1f:fd:0a:5b,-59,8,0,0,0,0,0,0,0,0,0,-89,0,3,0,121452787,0,67,0,128,1,"[67,48,4,0,11,-20,11,-21,11,-21,11,-21,10,-21,10,-21,10,-21,10,-22,10,-22,10,-22,10,-21,10,-20,11,-20,11,-20,11,-19,11,-18,11,-17,11,-16,10,-14,9,-13,9,-12,8,-11,8,-11,8,-11,7,-10,1,-3,0,0,0,0,0,0,0,0,0,0,0,0,0,0,0,0,0,0,2,-3,10,-12,11,-12,11,-12,11,-12,11,-12,12,-12,13,-13,13,-13,14,-14,14,-15,15,-16,16,-17,17,-16,18,-16,18,-16,19,-16,19,-15,18,-15,18,-14,17,-14,16,-14,16,-15,15,-15,14,-16,13,-18,12,-19]",58,60,90.5,63,-90.0,79,0,0,77,0,0,0,-13.0,13.0,-987.0
CSI_DATA,11305,60:60:1f:fd:0a:5b,-55,8,0,0,0,0,0,0,0,0,0,-89,0,3,0,121560772,0,67,0,128,1,"[67,48,4,0,-13,14,-13,15,-13,15,-13,15,-12,15,-12,16,-12,16,-12,17,-12,18,-12,18,-12,17,-13,17,-13,17,-14,17,-14,16,-14,16,-14,15,-14,14,-13,13,-13,12,-12,11,-12,11,-12,11,-12,11,-12,10,-4,2,0,0,0,0,0,0,0,0,0,0,0,0,0,0,0,0,0,0,-2,1,-7,7,-8,7,-8,7,-9,7,-9,7,-10,8,-11,8,-11,8,-11,8,-11,9,-12,10,-13,11,-13,11,-14,11,-15,11,-15,11,-16,11,-16,11,-17,10,-17,10,-16,10,-16,10,-16,10,-15,11,-14,12,-13,13]",58,60,90.5,63,-94.0,79,0,0,77,0,0,0,-6.0,13.0,-988.0
CSI_DATA,11314,60:60:1f:fd:0a:5b,-59,8,0,0,0,0,0,0,0,0,0,-89,0,3,0,121679966,0,67,0,128,1,"[67,48,4,0,-5,19,-4,18,-3,18,-3,18,-2,17,-1,16,0,15,0,15,1,16,1,16,1,14,0,12,0,12,-1,12,0,11,0,10,-1,8,-1,7,0,7,1,6,2,5,3,5,4,5,4,6,5,7,1,1,0,0,0,0,0,0,0,0,0,0,0,0,0,0,0,0,0,0,-3,8,-11,32,-11,32,-12,31,-12,31,-13,31,-14,31,-14,31,-14,29,-14,29,-14,31,-13,32,-13,33,-13,32,-14,32,-15,33,-15,33,-16,31,-16,30,-16,29,-16,27,-15,26,-15,24,-14,23,-12,22,-10,22,-8,21]",58,60,90.5,63,-85.0,80,0,0,77,0,0,0,10.0,6.0,-1026.0
CSI_DATA,11322,60:60:1f:fd:0a:5b,-55,8,0,0,0,0,0,0,0,0,0,-92,0,3,0,121790657,0,67,0,128,1,"[67,48,4,0,-20,7,-19,8,-19,8,-19,7,-18,7,-17,7,-17,7,-16,7,-16,8,-16,7,-15,7,-15,6,-14,6,-14,6,-13,6,-12,6,-11,5,-11,5,-10,5,-9,5,-8,5,-7,6,-8,6,-8,6,-8,7,-2,1,0,0,0,0,0,0,0,0,0,0,0,0,0,0,0,0,0,0,-5,2,-18,9,-18,8,-18,8,-19,7,-19,7,-20,7,-21,7,-21,7,-21,7,-22,8,-23,9,-23,9,-23,8,-24,8,-25,7,-25,7,-25,7,-25,6,-24,5,-24,5,-24,5,-23,5,-23,5,-22,6,-22,7,-21,8]",58,60,90.5,63,-84.0,80,0,0,77,0,0,0,-8.0,12.0,-964.0
CSI_DATA,11332,60:60:1f:fd:0a:5b,-54,8,0,0,0,0,0,0,0,0,0,-92,0,3,0,121895410,0,67,0,128,1,"[67,48,4,0,18,-22,18,-22,18,-21,18,-20,17,-19,17,-19,16,-19,15,-18,15,-19,14,-18,13,-17,13,-16,13,-15,12,-15,11,-14,11,-13,10,-12,9,-11,8,-10,7,-10,6,-10,5,-9,4,-9,3,-10,3,-10,0,-3,0,0,0,0,0,0,0,0,0,0,0,0,0,0,0,0,0,0,1,-4,6,-13,7,-13,8,-13,8,-13,9,-13,10,-14,10,-14,10,-14,11,-14,11,-15,11,-17,11,-19,12,-19,12,-20,13,-21,14,-22,15,-22,16,-22,17,-22,18,-21,18,-21,19,-22,19,-22,19,-23,18,-23,18,-24]",58,60,90.5,63,-90.0,81,0,0,77,0,0,0,0.0,6.0,-1009.0
CSI_DATA,11341,60:60:1f:fd:0a:5b,-55,8,0,0,0,0,0,0,0,0,0,-92,0,3,0,121996423,0,67,0,128,1,"[67,48,4,0,-27,6,-26,5,-25,5,-24,4,-23,4,-22,4,-21,4,-22,5,-21,5,-19,3,-18,2,-17,1,-16,1,-15,0,-13,0,-12,-1,-10,-1,-8,-1,-7,-1,-6,0,-5,0,-4,1,-3,2,-3,3,-3,4,-1,1,0,0,0,0,0,0,0,0,0,0,0,0,0,0,0,0,0,0,-7,0,-25,2,-24,2,-24,2,-24,2,-24,2,-24,3,-25,3,-26,4,-27,4,-28,5,-30,7,-31,8,-32,7,-32,6,-33,5,-34,6,-34,5,-33,4,-33,3,-32,3,-32,3,-31,2,-31,3,-30,4,-29,5,-28,6]",58,60,90.5,64,-85.0,81,0,0,77,0,0,0,-2.0,9.0,-968.0
CSI_DATA,11352,60:60:1f:fd:0a:5b,-53,8,0,0,0,0,0,0,0,0,0,-92,0,3,0,122099780,0,67,0,128,1,"[67,48,4,0,16,-19,16,-19,16,-19,16,-18,15,-17,15,-17,14,-17,14,-17,13,-17,13,-16,13,-15,12,-13,12,-13,12,-12,11,-11,11,-10,10,-9,9,-8,8,-7,6,-6,5,-5,4,-5,3,-5,3,-5,2,-5,0,-1,0,0,0,0,0,0,0,0,0,0,0,0,0,0,0,0,0,0,2,-4,10,-13,10,-12,10,-13,11,-13,12,-13,12,-13,13,-13,13,-14,14,-14,15,-15,15,-16,16,-17,17,-17,17,-16,18,-17,18,-18,18,-18,19,-17,19,-17,19,-17,19,-17,19,-17,19,-17,18,-18,17,-19,17,-19]",58,60,90.5,64,-87.0,82,0,0,77,0,0,0,16.0,-1.0,-1004.0
CSI_DATA,11360,60:60:1f:fd:0a:5b,-55,8,0,0,0,0,0,0,0,0,0,-92,0,3,0,122206987,0,67,0,128,1,"[67,48,4,0,21,-14,20,-14,20,-13,19,-13,19,-13,18,-13,18,-13,17,-14,17,-14,16,-14,16,-13,16,-12,15,-13,15,-12,14,-12,14,-11,13,-10,12,-9,10,-9,9,-8,8,-8,6,-8,5,-8,4,-8,4,-9,0,-3,0,0,0,0,0,0,0,0,0,0,0,0,0,0,0,0,0,0,2,-4,10,-13,11,-13,11,-13,11,-13,12,-12,13,-12,13,-12,14,-12,14,-12,15,-12,15,-13,16,-14,16,-14,17,-14,18,-14,18,-15,19,-15,19,-14,20,-14,20,-14,21,-14,21,-14,22,-13,22,-14,22,-14,21,-15]",58,60,90.5,64,-88.0,81,0,0,77,0,0,0,-1.0,1.0,-1033.0
CSI_DATA,11369,60:60:1f:fd:0a:5b,-56,8,0,0,0,0,0,0,0,0,0,-92,0,3,0,122318000,0,67,0,128,1,"[67,48,4,0,-22,0,-21,0,-20,0,-18,0,-17,0,-16,0,-15,0,-15,1,-14,1,-14,1,-13,1,-12,0,-12,0,-11,-1,-10,-1,-9,-2,-8,-3,-7,-3,-5,-3,-4,-3,-3,-3,-2,-2,-2,-2,-1,-1,-1,0,-1,0,0,0,0,0,0,0,0,0,0,0,0,0,0,0,0,0,0,0,-7,0,-27,2,-27,1,-27,1,-27,1,-27,0,-28,-1,-28,-1,-28,-1,-28,-1,-28,0,-29,1,-30,2,-30,3,-30,3,-31,2,-31,3,-31,3,-31,2,-31,1,-30,1,-30,0,-30,0,-29,0,-29,0,-27,1,-26,1]",58,60,90.5,64,-88.0,81,0,0,77,0,0,0,-1.0,1.0,-1033.0
CSI_DATA,11381,60:60:1f:fd:0a:5b,-55,8,0,0,0,0,0,0,0,0,0,-92,0,3,0,122426275,0,67,0,128,1,"[67,48,4,0,-15,19,-14,19,-13,19,-13,18,-12,18,-11,17,-10,17,-9,17,-9,17,-8,17,-9,16,-9,16,-9,16,-9,15,-9,14,-8,13,-8,11,-7,10,-6,8,-5,7,-4,6,-3,6,-2,5,-1,5,0,5,0,1,0,0,0,0,0,0,0,0,0,0,0,0,0,0,0,0,0,0,-2,3,-8,15,-9,15,-10,15,-11,16,-11,16,-12,17,-13,18,-13,18,-14,18,-14,18,-14,19,-14,20,-14,20,-15,21,-16,22,-16,23,-17,23,-17,23,-18,23,-18,23,-19,22,-19,22,-19,22,-19,22,-18,22,-17,22]",58,60,90.0,64,-88.0,81,0,0,78,0,0,0,-15.0,11.0,-977.0
CSI_DATA,11392,60:60:1f:fd:0a:5b,-56,8,0,0,0,0,0,0,0,0,0,-92,0,3,0,122532034,0,67,0,128,1,"[67,48,4,0,-28,16,-27,16,-27,16,-26,15,-25,16,-24,16,-24,17,-23,18,-22,18,-22,17,-22,15,-22,14,-22,14,-22,13,-21,12,-20,11,-19,9,-17,8,-16,6,-14,6,-12,5,-10,4,-9,5,-8,5,-7,5,-2,1,0,0,0,0,0,0,0,0,0,0,0,0,0,0,0,0,0,0,-4,2,-14,10,-17,11,-19,12,-18,12,-17,10,-17,10,-18,10,-20,11,-21,11,-21,12,-22,14,-24,15,-24,15,-26,15,-28,16,-29,17,-30,17,-31,15,-32,15,-31,15,-31,14,-32,14,-32,14,-31,14,-30,15,-29,16]",58,60,90.0,64,-87.0,81,0,0,78,0,0,0,-10.0,13.0,-1011.0
CSI_DATA,11403,60:60:1f:fd:0a:5b,-64,8,0,0,0,0,0,0,0,0,0,-92,0,3,0,122656337,0,67,0,128,1,"[67,48,4,0,12,9,12,8,13,7,14,7,14,7,15,6,16,6,17,5,19,5,20,5,20,5,20,6,20,7,20,7,19,7,18,8,17,8,16,8,14,7,13,7,11,6,10,5,9,3,8,2,8,1,1,0,0,0,0,0,0,0,0,0,0,0,0,0,0,0,0,0,0,0,1,4,4,18,3,19,1,20,0,20,-1,21,-2,22,-4,22,-5,21,-5,20,-6,19,-6,17,-5,16,-4,14,-3,13,-2,13,-1,13,0,12,1,12,2,12,3,11,4,11,5,11,7,10,8,10,9,9,10,9]",58,60,90.0,64,-83.0,81,0,0,78,0,0,0,13.0,0.0,-1001.0
CSI_DATA,11413,60:60:1f:fd:0a:5b,-62,8,0,0,0,0,0,0,0,0,0,-92,0,3,0,122756746,0,67,0,128,1,"[67,48,4,0,9,-14,9,-14,8,-14,8,-15,7,-15,6,-16,6,-17,6,-18,6,-18,7,-19,8,-19,8,-18,8,-19,7,-20,7,-19,8,-18,8,-17,7,-16,7,-15,7,-14,6,-12,5,-12,4,-11,3,-11,2,-10,0,-3,0,0,0,0,0,0,0,0,0,0,0,0,0,0,0,0,0,0,3,-3,15,-12,16,-12,18,-10,19,-8,20,-7,21,-6,22,-5,22,-5,21,-4,20,-3,19,-3,18,-2,16,-2,15,-3,14,-4,14,-4,13,-6,13,-7,13,-7,12,-8,12,-9,11,-9,11,-10,10,-11,10,-12,10,-12]",58,60,90.0,64,-88.0,80,0,0,78,0,0,0,9.0,4.0,-994.0
CSI_DATA,11420,60:60:1f:fd:0a:5b,-62,8,0,0,0,0,0,0,0,0,0,-92,0,3,0,122858075,0,67,0,128,1,"[67,48,4,0,-15,18,-15,18,-15,19,-14,19,-14,19,-14,19,-13,19,-13,20,-13,21,-13,21,-14,20,-14,21,-14,21,-15,20,-15,18,-15,17,-15,15,-14,14,-13,13,-12,11,-11,10,-9,10,-8,10,-8,10,-7,10,-2,2,0,0,0,0,0,0,0,0,0,0,0,0,0,0,0,0,0,0,-5,4,-19,15,-20,15,-21,13,-22,12,-24,11,-25,11,-25,10,-25,8,-25,7,-24,6,-23,6,-22,6,-20,6,-18,7,-18,8,-17,9,-17,10,-17,11,-16,12,-16,13,-16,13,-16,14,-16,16,-16,16,-15,17,-14,18]",58,60,90.0,64,-89.0,80,0,0,78,0,0,0,17.0,14.0,-1019.0
CSI_DATA,11430,60:60:1f:fd:0a:5b,-61,8,0,0,0,0,0,0,0,0,0,-90,0,3,0,122961816,0,67,0,128,1,"[67,48,4,0,11,-18,11,-18,11,-19,11,-18,11,-18,11,-18,11,-18,10,-18,10,-19,10,-19,10,-18,11,-17,11,-17,11,-16,11,-15,11,-14,11,-13,10,-12,9,-12,8,-11,8,-10,7,-10,6,-10,6,-10,6,-10,1,-3,0,0,0,0,0,0,0,0,0,0,0,0,0,0,0,0,0,0,3,-4,13,-13,14,-13,15,-13,16,-12,17,-11,18,-11,18,-9,18,-8,18,-8,17,-7,16,-7,15,-7,14,-7,12,-8,12,-9,11,-10,11,-11,11,-12,11,-13,11,-13,11,-14,11,-15,11,-16,11,-16,11,-17,10,-18]",58,60,90.0,65,-89.0,80,0,0,78,0,0,0,3.0,11.0,-1000.0
CSI_DATA,11434,60:60:1f:fd:0a:5b,-63,8,0,0,0,0,0,0,0,0,0,-90,0,3,0,123015473,0,67,0,128,1,"[67,48,4,0,23,-4,23,-4,24,-4,23,-4,23,-4,23,-4,22,-4,22,-4,23,-5,22,-5,22,-4,22,-3,22,-3,21,-2,20,-2,19,-1,18,-1,17,-1,16,-1,15,-1,14,-1,13,-2,12,-2,12,-3,12,-3,3,-1,0,0,0,0,0,0,0,0,0,0,0,0,0,0,0,0,0,0,4,-1,19,-2,19,0,20,1,20,1,19,3,19,4,20,5,19,6,18,7,17,7,16,6,16,5,15,3,14,2,15,1,16,0,16,-1,17,-2,18,-2,18,-3,19,-3,20,-4,21,-4,21,-5,21,-5,22,-6]",58,60,90.0,65,-94.0,79,0,0,78,0,0,0,2.0,5.0,-1005.0
CSI_DATA,11441,60:60:1f:fd:0a:5b,-62,8,0,0,0,0,0,0,0,0,0,-90,0,3,0,123084591,0,67,0,128,1,"[67,48,4,0,-19,20,-20,21,-20,21,-20,20,-20,20,-19,20,-21,20,-20,20,-17,20,-17,20,-19,20,-20,19,-20,19,-19,19,-19,18,-19,17,-18,16,-17,15,-16,14,-15,13,-14,13,-13,12,-12,12,-12,12,-11,12,-3,3,0,0,0,0,0,0,0,0,0,0,0,0,0,0,0,0,0,0,-4,2,-15,11,-16,11,-17,10,-18,9,-19,9,-20,8,-20,7,-20,7,-20,5,-20,5,-19,5,-17,6,-16,6,-15,7,-14,8,-15,10,-15,11,-15,13,-15,14,-15,14,-16,15,-16,16,-17,17,-17,18,-17,19,-17,20]",58,60,90.0,65,-88.0,79,0,0,78,0,0,0,1.0,2.0,-1028.0
CSI_DATA,11445,60:60:1f:fd:0a:5b,-63,8,0,0,0,0,0,0,0,0,0,-90,0,3,0,123122781,0,67,0,128,1,"[67,48,4,0,-12,19,-13,19,-13,19,-13,18,-12,18,-12,18,-12,18,-12,19,-12,19,-12,19,-12,18,-13,18,-13,18,-13,17,-13,16,-13,15,-13,15,-13,14,-12,13,-11,12,-10,11,-10,10,-9,10,-8,10,-7,11,-2,2,0,0,0,0,0,0,0,0,0,0,0,0,0,0,0,0,0,0,-2,2,-9,12,-9,12,-10,11,-11,11,-12,11,-13,11,-13,11,-14,10,-13,9,-13,8,-13,8,-12,8,-11,8,-10,8,-10,9,-9,10,-9,11,-9,12,-9,13,-9,13,-9,14,-9,15,-9,16,-10,17,-10,18,-9,19]",58,60,90.0,65,-89.0,79,0,0,78,0,0,0,-11.0,13.0,-1026.0
CSI_DATA,11469,60:60:1f:fd:0a:5b,-59,8,0,0,0,0,0,0,0,0,0,-90,0,3,0,123362704,0,67,0,128,1,"[67,48,4,0,-30,-3,-30,-3,-31,-3,-30,-3,-30,-3,-30,-3,-30,-2,-31,-2,-32,-2,-32,-2,-31,-3,-31,-3,-31,-3,-31,-4,-30,-4,-29,-5,-27,-5,-26,-5,-24,-5,-23,-5,-21,-5,-20,-4,-19,-4,-18,-3,-17,-3,-5,-1,0,0,0,0,0,0,0,0,0,0,0,0,0,0,0,0,0,0,-4,-1,-13,-2,-14,-3,-14,-3,-15,-4,-15,-5,-16,-6,-16,-7,-15,-8,-15,-8,-15,-9,-14,-9,-14,-8,-14,-7,-14,-6,-15,-6,-16,-5,-18,-4,-19,-3,-20,-3,-21,-3,-22,-2,-23,-2,-25,-2,-26,-2,-26,-2,-27,-1]",58,60,90.0,65,-84.0,78,0,0,78,0,0,0,18.0,4.0,-1084.0
CSI_DATA,11471,60:60:1f:fd:0a:5b,-61,8,0,0,0,0,0,0,0,0,0,-90,0,3,0,123382143,0,67,0,128,1,"[67,48,4,0,15,22,15,23,15,23,15,23,16,23,16,23,16,23,17,23,18,23,18,23,18,23,17,23,17,24,16,24,15,24,14,23,13,22,12,21,11,20,10,19,10,17,9,16,9,14,9,13,9,13,2,3,0,0,0,0,0,0,0,0,0,0,0,0,0,0,0,0,0,0,1,2,6,8,5,9,5,11,5,12,4,13,4,15,4,16,3,17,2,16,1,15,1,15,2,14,2,13,3,13,4,14,5,14,6,14,7,15,8,15,9,16,10,16,11,17,12,18,13,19,14,19,15,20]",58,60,90.0,65,-87.0,80,0,0,77,0,0,0,4.0,30.0,-1082.0
CSI_DATA,11473,60:60:1f:fd:0a:5b,-60,13,0,0,0,0,0,0,0,0,0,-90,0,3,0,123396152,0,67,0,128,1,"[67,48,4,0,-13,-22,-13,-22,-13,-22,-13,-22,-14,-22,-15,-21,-15,-21,-16,-21,-16,-21,-17,-20,-18,-20,-18,-21,-18,-21,-17,-21,-16,-22,-15,-21,-14,-21,-12,-20,-10,-19,-10,-18,-9,-17,-9,-15,-8,-14,-7,-13,-7,-13,-2,-4,0,0,0,0,0,0,0,0,0,0,0,0,0,0,0,0,0,0,-2,-3,-6,-9,-6,-11,-6,-12,-5,-13,-4,-14,-3,-15,-2,-15,-1,-16,0,-16,1,-15,1,-15,1,-14,1,-14,0,-14,-1,-14,-2,-14,-3,-15,-4,-15,-5,-16,-6,-17,-7,-17,-8,-18,-8,-18,-9,-19,-11,-20,-11,-21]",58,60,90.0,65,-84.0,81,0,0,78,0,0,1,6.0,2.0,-994.0
CSI_DATA,11475,60:60:1f:fd:0a:5b,-61,8,0,0,0,0,0,0,0,0,0,-90,0,3,0,123417647,0,67,0,128,1,"[67,48,4,0,-14,21,-14,22,-14,22,-14,22,-13,23,-13,23,-13,24,-13,24,-12,25,-12,26,-13,26,-13,26,-13,26,-13,25,-14,24,-14,23,-14,22,-14,21,-13,19,-12,18,-11,17,-10,16,-9,15,-8,14,-7,14,-2,3,0,0,0,0,0,0,0,0,0,0,0,0,0,0,0,0,0,0,-1,2,-4,11,-6,11,-7,11,-8,11,-9,11,-11,12,-12,11,-13,10,-13,9,-14,9,-13,8,-13,8,-12,8,-12,8,-11,9,-11,9,-11,10,-11,11,-11,12,-11,13,-11,14,-11,15,-12,17,-12,18,-11,19,-11,21]",58,60,90.0,65,-80.0,82,0,0,78,0,0,1,7.0,6.0,-980.0
CSI_DATA,11511,60:60:1f:fd:0a:5b,-68,9,0,0,0,0,0,0,0,0,0,-90,0,3,0,123883191,0,67,0,128,1,"[67,48,4,0,-3,-18,-4,-17,-6,-17,-8,-17,-10,-17,-13,-18,-15,-18,-16,-19,-18,-19,-20,-20,-22,-21,-23,-21,-23,-22,-22,-24,-21,-24,-19,-25,-17,-25,-15,-24,-13,-22,-11,-20,-11,-18,-10,-16,-8,-14,-7,-12,-6,-11,-2,-3,0,0,0,0,0,0,0,0,0,0,0,0,0,0,0,0,0,0,2,-1,9,-2,9,0,9,0,10,2,12,5,14,7,13,8,12,8,10,9,8,9,7,8,5,6,4,4,3,1,2,-1,2,-3,2,-5,2,-8,2,-10,3,-11,3,-12,3,-14,3,-15,2,-16,1,-17,1,-17]",58,70,90.0,66,-82.0,84,0,0,78,0,0,0,3.0,14.0,-956.0
CSI_DATA,11515,60:60:1f:fd:0a:5b,-69,9,0,0,0,0,0,0,0,0,0,-90,0,3,0,123962576,0,67,0,128,1,"[67,48,4,0,-1,17,1,17,3,18,5,18,8,19,12,20,15,21,17,21,20,21,25,23,28,27,27,30,27,29,26,29,25,30,24,30,22,30,19,30,16,28,14,25,13,22,13,19,12,16,9,12,9,10,2,2,0,0,0,0,0,0,0,0,0,0,0,0,0,0,0,0,0,0,0,-4,0,-13,-3,-12,-5,-11,-6,-12,-6,-15,-7,-17,-8,-18,-5,-20,0,-21,1,-20,1,-18,2,-17,3,-14,2,-10,1,-7,1,-4,-1,-1,-3,2,-4,4,-4,7,-5,9,-6,10,-7,11,-6,13,-6,15,-6,16]",58,70,90.0,66,-82.0,84,0,-1,78,0,0,0,1.0,6.0,-954.0
CSI_DATA,11518,60:60:1f:fd:0a:5b,-68,8,0,0,0,0,0,0,0,0,0,-90,0,3,0,124022281,0,67,0,128,1,"[67,48,4,0,0,21,1,21,3,22,5,22,6,22,8,23,10,24,12,25,14,27,15,28,15,30,14,32,14,33,13,34,12,33,10,32,9,32,7,30,6,28,5,25,5,23,5,20,5,17,6,15,6,13,1,3,0,0,0,0,0,0,0,0,0,0,0,0,0,0,0,0,0,0,-4,-1,-13,-1,-13,-2,-15,-3,-17,-2,-18,-2,-20,-2,-20,-3,-20,-5,-19,-7,-17,-8,-15,-8,-12,-7,-9,-6,-7,-4,-6,-2,-4,1,-3,4,-3,6,-2,9,-2,11,-2,14,-2,16,-3,18,-2,19,-2,19,-2,20]",58,70,90.0,66,-79.0,84,0,0,78,0,0,0,16.0,4.0,-1006.0
CSI_DATA,11521,60:60:1f:fd:0a:5b,-68,8,0,0,0,0,0,0,0,0,0,-90,0,3,0,124055461,0,67,0,128,1,"[67,48,4,0,4,-19,3,-19,2,-19,1,-20,0,-20,-2,-21,-3,-22,-5,-23,-7,-24,-8,-26,-7,-27,-7,-28,-6,-29,-5,-29,-4,-29,-3,-28,-2,-27,-1,-26,-1,-24,0,-22,0,-20,-1,-18,-2,-16,-2,-15,-3,-13,-1,-4,0,0,0,0,0,0,0,0,0,0,0,0,0,0,0,0,0,0,2,0,10,-1,11,0,11,1,12,2,14,2,15,3,15,4,14,5,13,6,12,7,10,7,9,6,7,5,5,3,4,0,4,-2,3,-5,3,-7,3,-9,3,-11,4,-13,4,-15,5,-16,5,-16,5,-17,4,-18]",58,70,89.5,66,-73.0,84,0,0,78,0,0,0,0.0,15.0,-1086.0
CSI_DATA,11560,60:60:1f:fd:0a:5b,-57,9,0,0,0,0,0,0,0,0,0,-90,0,3,0,124545780,0,67,0,128,1,"[67,48,4,0,15,10,13,9,10,7,8,6,6,4,5,2,3,1,2,0,1,-1,0,-2,0,-3,-1,-3,-2,-3,-3,-4,-4,-4,-4,-4,-5,-5,-5,-5,-5,-5,-5,-5,-5,-5,-4,-5,-4,-5,-3,-5,-2,-6,-1,-2,0,0,0,0,0,0,0,0,0,0,0,0,0,0,0,0,0,0,5,3,23,12,24,11,25,11,25,11,24,12,24,14,25,15,25,16,25,17,25,17,26,16,27,16,27,16,27,17,27,16,28,15,27,16,27,16,28,15,28,14,28,13,27,13,26,14,26,15,26,14,24,14]",58,70,89.5,66,-75.0,86,0,0,78,0,0,1,-1.0,9.0,-1095.0
CSI_DATA,11563,60:60:1f:fd:0a:5b,-57,13,0,0,0,0,0,0,0,0,0,-90,0,3,0,124578929,0,67,0,128,1,"[67,48,4,0,14,-10,12,-9,9,-7,7,-6,4,-5,2,-5,0,-4,-2,-4,-4,-3,-5,-3,-6,-2,-7,-1,-8,0,-8,0,-9,1,-10,2,-10,1,-11,1,-11,1,-11,1,-11,1,-11,1,-10,0,-10,0,-9,-1,-3,-1,0,0,0,0,0,0,0,0,0,0,0,0,0,0,0,0,0,0,4,-5,19,-19,20,-18,21,-19,23,-18,24,-17,25,-16,25,-15,27,-15,28,-15,28,-16,28,-17,28,-18,28,-18,28,-17,27,-17,27,-19,27,-18,26,-17,26,-19,26,-19,25,-19,25,-19,25,-18,24,-18,24,-18,23,-16]",58,70,89.5,66,-76.0,87,0,0,78,0,0,1,0.0,11.0,-1059.0
CSI_DATA,11565,60:60:1f:fd:0a:5b,-57,8,0,0,0,0,0,0,0,0,0,-90,0,3,0,124594002,0,67,0,128,1,"[67,48,4,0,-8,14,-7,12,-5,10,-3,7,-2,6,0,5,2,3,3,2,4,2,5,1,6,0,6,-1,7,-1,8,-2,8,-3,8,-4,9,-4,9,-5,10,-5,10,-4,10,-4,9,-4,9,-4,9,-4,9,-4,2,-1,0,0,0,0,0,0,0,0,0,0,0,0,0,0,0,0,0,0,-2,5,-6,23,-7,23,-8,24,-9,24,-9,24,-10,24,-10,25,-10,25,-11,25,-11,26,-11,27,-11,28,-11,27,-11,27,-11,27,-11,28,-10,28,-11,27,-11,27,-10,27,-11,26,-11,26,-12,25,-12,24,-11,23,-10,22]",58,70,89.5,66,-75.0,88,0,0,78,0,0,2,0.0,12.0,-1043.0
CSI_DATA,11571,60:60:1f:fd:0a:5b,-56,8,0,0,0,0,0,0,0,0,0,-90,0,3,0,124657394,0,67,0,128,1,"[67,48,4,0,-18,-1,-16,0,-14,1,-13,2,-11,4,-10,5,-10,7,-9,8,-8,10,-8,10,-7,11,-7,12,-6,13,-6,14,-5,14,-5,15,-5,16,-5,16,-5,16,-6,16,-6,16,-6,16,-6,16,-7,16,-7,15,-2,3,0,0,0,0,0,0,0,0,0,0,0,0,0,0,0,0,0,0,-5,1,-20,5,-21,4,-22,3,-23,3,-23,2,-24,1,-25,0,-25,-1,-25,-1,-26,-1,-26,-1,-27,-1,-26,-2,-26,-2,-26,-3,-27,-2,-27,-2,-26,-3,-26,-3,-26,-3,-26,-3,-26,-3,-26,-4,-25,-3,-25,-2,-23,-1]",58,80,89.5,67,-68.0,94,0,0,78,0,0,3,5.0,11.0,-1022.0
CSI_DATA,11600,60:60:1f:fd:0a:5b,-57,8,0,0,0,0,0,0,0,0,0,-90,0,3,0,124980512,0,67,0,128,1,"[67,48,4,0,-8,-21,-7,-20,-7,-20,-7,-18,-7,-17,-7,-16,-7,-15,-8,-14,-9,-13,-9,-12,-9,-11,-10,-10,-12,-9,-13,-8,-14,-8,-14,-8,-15,-8,-15,-8,-14,-9,-14,-9,-13,-9,-13,-10,-12,-9,-12,-9,-11,-9,-3,-3,0,0,0,0,0,0,0,0,0,0,0,0,0,0,0,0,0,0,-3,-5,-11,-17,-10,-18,-10,-19,-9,-20,-9,-20,-9,-21,-9,-22,-9,-22,-8,-22,-8,-23,-9,-24,-10,-24,-9,-24,-8,-25,-8,-25,-9,-26,-8,-26,-7,-26,-7,-26,-6,-25,-6,-25,-6,-25,-6,-25,-6,-24,-7,-23,-8,-23]",58,80,89.5,67,-62.0,100,0,0,78,0,0,2,-3.0,14.0,-905.0
CSI_DATA,11605,60:60:1f:fd:0a:5b,-58,8,0,0,0,0,0,0,0,0,0,-90,0,3,0,125035942,0,67,0,128,1,"[67,48,4,0,-2,16,-2,15,-1,14,-1,13,-1,12,0,11,0,10,1,9,1,8,2,7,3,6,4,5,5,5,6,4,8,4,9,4,9,5,10,5,10,6,10,6,9,7,9,7,9,7,9,7,8,7,2,1,0,0,0,0,0,0,0,0,0,0,0,0,0,0,0,0,0,0,0,5,2,22,1,21,1,21,0,21,-2,21,-4,22,-4,22,-4,22,-3,22,-3,23,-2,24,-2,24,-3,24,-3,23,-4,23,-4,23,-4,23,-5,22,-5,22,-5,21,-5,20,-5,19,-5,19,-4,19,-3,19,-2,19]",58,80,89.5,67,-65.0,101,0,0,78,0,0,1,-4.0,11.0,-931.0
CSI_DATA,11633,60:60:1f:fd:0a:5b,-58,8,0,0,0,0,0,0,0,0,0,-90,0,3,0,125351701,0,67,0,128,1,"[67,48,4,0,-11,15,-10,15,-10,15,-10,15,-10,15,-9,15,-10,16,-10,16,-11,16,-12,16,-12,15,-13,14,-13,13,-13,12,-13,11,-12,9,-12,7,-10,6,-9,4,-8,3,-6,2,-5,1,-4,0,-2,0,-1,-1,0,-1,0,0,0,0,0,0,0,0,0,0,0,0,0,0,0,0,0,0,-6,7,-21,28,-21,27,-20,26,-18,26,-18,26,-18,26,-17,27,-16,26,-15,26,-15,27,-14,27,-13,28,-13,27,-13,26,-13,26,-12,26,-12,25,-12,24,-12,23,-12,22,-12,21,-12,20,-13,20,-12,19,-11,18,-11,18]",58,90,89.0,67,-57.99999999999999,103,0,0,78,0,0,0,-1.0,25.0,-930.0
CSI_DATA,11638,60:60:1f:fd:0a:5b,-58,8,0,0,0,0,0,0,0,0,0,-90,0,3,0,125413136,0,67,0,128,1,"[67,48,4,0,17,4,17,3,17,3,18,3,18,3,19,2,19,2,20,2,20,2,20,3,20,4,19,5,19,6,17,6,16,6,14,6,12,6,10,6,9,6,7,4,5,3,3,3,2,2,1,0,0,-1,0,-1,0,0,0,0,0,0,0,0,0,0,0,0,0,0,0,0,0,0,8,1,33,6,33,6,32,5,32,5,31,4,32,4,31,3,31,2,31,2,31,1,31,0,31,-1,30,0,29,0,29,0,29,0,28,0,27,1,26,2,25,2,24,3,23,4,23,4,22,4,21,4,20,4]",58,90,89.0,67,-61.0,103,0,0,78,0,0,0,5.0,13.0,-971.0
CSI_DATA,11654,60:60:1f:fd:0a:5b,-59,8,0,0,0,0,0,0,0,0,0,-90,0,3,0,125609771,0,67,0,128,1,"[67,48,4,0,10,14,10,14,11,13,11,12,13,12,14,11,15,11,16,11,17,11,17,11,17,12,17,11,17,11,17,12,16,11,15,11,13,11,11,9,9,8,8,7,6,5,5,4,3,2,2,1,2,0,0,0,0,0,0,0,0,0,0,0,0,0,0,0,0,0,0,0,0,0,6,4,26,16,26,16,25,15,24,14,24,14,24,13,24,12,24,12,24,11,24,11,24,10,24,10,23,10,22,11,21,11,20,11,19,12,18,12,17,13,16,14,15,14,14,15,13,15,12,15,12,15,12,15]",58,90,89.0,67,-61.0,103,0,-1,78,0,0,0,28.0,-2.0,-1067.0
CSI_DATA,11657,60:60:1f:fd:0a:5b,-59,8,0,0,0,0,0,0,0,0,0,-90,0,3,0,125632419,0,67,0,128,1,"[67,48,4,0,14,-15,13,-15,12,-15,11,-16,10,-17,9,-19,9,-20,8,-21,8,-22,9,-23,10,-21,8,-20,7,-21,8,-22,7,-21,7,-19,7,-17,6,-15,5,-13,4,-11,3,-9,2,-7,1,-6,0,-4,-1,-2,-1,-1,0,0,0,0,0,0,0,0,0,0,0,0,0,0,0,0,0,0,2,-7,11,-28,11,-28,10,-27,9,-26,8,-25,8,-26,8,-25,7,-25,7,-24,6,-24,6,-24,6,-24,7,-23,7,-22,8,-21,8,-21,9,-20,10,-19,11,-18,12,-18,13,-17,14,-16,14,-15,15,-15,15,-15,15,-16]",58,90,89.0,67,-59.0,104,0,0,78,0,0,0,31.0,14.0,-1126.0
CSI_DATA,11662,60:60:1f:fd:0a:5b,-59,8,0,0,0,0,0,0,0,0,0,-90,0,3,0,125693700,0,67,0,128,1,"[67,48,4,0,-14,24,-13,24,-11,25,-10,25,-8,25,-7,26,-6,27,-4,28,-3,29,-3,29,-3,28,-3,28,-2,28,-2,28,-1,27,-1,25,-1,23,-1,21,-1,18,-1,15,0,12,1,10,2,8,2,6,3,4,0,1,0,0,0,0,0,0,0,0,0,0,0,0,0,0,0,0,0,0,3,4,13,18,13,18,13,18,12,17,10,17,10,17,10,16,9,15,8,15,7,15,7,16,6,16,5,16,3,17,1,18,0,18,-1,19,-3,19,-5,20,-7,21,-8,21,-10,22,-11,22,-12,23,-13,24,-13,24]",58,90,89.0,68,-52.0,108,0,0,78,0,0,2,-13.0,19.0,-1014.0
CSI_DATA,11696,60:60:1f:fd:0a:5b,-58,8,0,0,0,0,0,0,0,0,0,-90,0,3,0,126048648,0,67,0,128,1,"[67,48,4,0,-3,-24,-2,-23,-1,-21,0,-19,0,-18,1,-17,3,-15,3,-14,3,-12,4,-11,5,-9,5,-8,6,-7,7,-7,8,-6,8,-5,9,-5,10,-4,11,-4,12,-3,13,-2,13,-1,14,0,15,1,15,2,3,0,0,0,0,0,0,0,0,0,0,0,0,0,0,0,0,0,0,0,0,-4,3,-16,3,-18,2,-18,2,-18,4,-19,5,-22,3,-24,2,-23,2,-23,1,-24,1,-27,0,-29,-1,-29,-2,-29,-3,-29,-4,-30,-4,-30,-4,-30,-4,-31,-4,-31,-5,-30,-5,-31,-4,-31,-5,-31,-6,-30,-6,-29]",58,90,89.0,68,-53.0,111,0,0,78,0,0,2,0.0,19.0,-1028.0
CSI_DATA,11699,60:60:1f:fd:0a:5b,-58,8,0,0,0,0,0,0,0,0,0,-90,0,3,0,126068004,0,67,0,128,1,"[67,48,4,0,21,-10,19,-9,18,-7,16,-6,14,-4,12,-3,10,-2,9,-1,7,0,5,2,3,3,2,4,1,5,0,5,-1,6,-2,7,-2,8,-3,9,-4,10,-5,11,-5,11,-7,12,-8,13,-9,13,-10,13,-3,3,0,0,0,0,0,0,0,0,0,0,0,0,0,0,0,0,0,0,4,-2,18,-6,19,-6,20,-6,21,-7,22,-8,23,-9,24,-9,25,-10,26,-10,27,-11,27,-12,28,-13,28,-13,28,-13,28,-14,28,-16,28,-16,28,-16,28,-16,28,-16,28,-16,28,-16,28,-16,27,-15,26,-15,25,-15]",58,100,89.0,68,-47.0,115,0,0,78,0,0,3,17.0,15.0,-1059.0
CSI_DATA,11702,60:60:1f:fd:0a:5b,-57,8,0,0,0,0,0,0,0,0,0,-90,0,3,0,126087441,0,67,0,128,1,"[67,48,4,0,-22,3,-20,2,-18,1,-16,0,-14,0,-12,-1,-10,-1,-8,-2,-6,-2,-4,-2,-2,-2,0,-3,2,-3,3,-3,4,-3,6,-3,7,-4,7,-3,8,-3,10,-4,11,-4,12,-4,14,-4,15,-4,15,-3,4,-1,0,0,0,0,0,0,0,0,0,0,0,0,0,0,0,0,0,0,-5,0,-20,1,-21,2,-22,2,-23,3,-24,3,-25,3,-25,4,-26,3,-28,3,-29,4,-29,4,-30,5,-30,5,-30,5,-31,5,-31,6,-31,7,-31,6,-31,6,-30,6,-30,7,-30,6,-30,6,-29,6,-29,6,-28,6]",58,100,89.0,68,-47.0,118,0,0,78,0,0,3,11.0,4.0,-920.0
CSI_DATA,11729,60:60:1f:fd:0a:5b,-63,8,0,0,0,0,0,0,0,0,0,-90,0,3,0,126416318,0,67,0,128,1,"[67,48,4,0,-28,-11,-29,-12,-30,-13,-30,-14,-30,-14,-30,-15,-30,-15,-30,-15,-30,-16,-30,-16,-28,-17,-27,-17,-26,-17,-25,-16,-24,-15,-24,-15,-23,-15,-23,-15,-22,-16,-22,-17,-21,-18,-20,-20,-19,-21,-18,-23,-17,-25,-5,-7,0,0,0,0,0,0,0,0,0,0,0,0,0,0,0,0,0,0,3,-2,12,-8,11,-8,9,-8,8,-9,7,-10,6,-10,5,-11,4,-12,4,-13,3,-14,2,-14,0,-15,0,-14,-1,-14,-3,-14,-5,-14,-6,-14,-7,-14,-9,-14,-10,-13,-12,-13,-14,-13,-16,-12,-18,-11,-21,-10,-22,-9]",58,100,88.5,68,-39.0,123,0,0,78,0,0,2,-6.0,19.0,-918.0
CSI_DATA,11733,60:60:1f:fd:0a:5b,-60,8,0,0,0,0,0,0,0,0,0,-90,0,3,0,126479373,0,67,0,128,1,"[67,48,4,0,21,-15,22,-15,23,-15,23,-14,23,-14,23,-14,24,-13,23,-13,23,-13,22,-12,21,-10,20,-9,20,-10,19,-9,18,-9,18,-8,18,-8,18,-7,18,-6,17,-4,17,-2,17,0,16,1,15,4,14,6,3,1,0,0,0,0,0,0,0,0,0,0,0,0,0,0,0,0,0,0,4,1,16,6,15,5,15,4,15,3,15,3,16,3,17,3,17,2,18,3,18,3,18,2,19,2,18,1,18,1,18,0,18,-1,18,-2,18,-3,18,-4,18,-5,18,-5,19,-7,19,-8,19,-9,19,-11,20,-13]",58,110,88.5,68,-32.0,128,0,0,78,0,0,1,0.0,6.0,-1004.0
CSI_DATA,11739,60:60:1f:fd:0a:5b,-63,8,0,0,0,0,0,0,0,0,0,-90,0,3,0,126552384,0,67,0,128,1,"[67,48,4,0,-4,-19,-5,-20,-6,-21,-6,-21,-7,-21,-7,-21,-8,-21,-8,-22,-8,-21,-9,-19,-13,-15,-18,-16,-16,-19,-13,-21,-12,-21,-12,-21,-11,-21,-10,-22,-9,-22,-7,-22,-5,-21,-2,-21,0,-20,2,-18,4,-17,1,-4,0,0,0,0,0,0,0,0,0,0,0,0,0,0,0,0,0,0,3,-3,13,-12,14,-12,14,-12,13,-12,14,-13,14,-14,14,-14,14,-15,15,-15,15,-15,15,-16,15,-16,14,-16,14,-16,13,-16,13,-17,12,-17,11,-17,11,-17,10,-17,9,-17,8,-17,7,-17,5,-17,3,-18,1,-18]",58,110,88.5,68,-36.0,129,0,0,78,0,0,1,10.0,10.0,-901.0
CSI_DATA,11765,60:60:1f:fd:0a:5b,-61,9,0,0,0,0,0,0,0,0,0,-89,0,3,0,126812462,0,67,0,128,1,"[67,48,4,0,-11,27,-12,26,-12,24,-12,23,-12,22,-12,20,-12,19,-12,16,-11,14,-10,12,-10,10,-9,9,-7,7,-6,5,-5,4,-3,2,-2,1,-1,1,0,0,1,0,2,0,3,0,4,0,4,0,4,0,1,0,0,0,0,0,0,0,0,0,0,0,0,0,0,0,0,0,0,0,-4,3,-13,15,-15,15,-16,15,-17,16,-18,16,-19,15,-20,14,-20,15,-21,14,-21,13,-21,13,-21,13,-21,13,-19,13,-18,13,-16,14,-15,14,-14,15,-12,17,-11,18,-10,20,-9,22,-9,23,-9,25,-9,27,-10,28]",58,110,88.5,69,-36.0,131,0,0,77,0,0,1,21.0,6.0,-969.0
CSI_DATA,11771,60:60:1f:fd:0a:5b,-63,8,0,0,0,0,0,0,0,0,0,-89,0,3,0,126893999,0,67,0,128,1,"[67,48,4,0,17,28,16,29,14,29,12,28,10,26,8,25,7,23,5,20,3,18,2,15,1,12,0,9,1,6,1,3,2,0,3,-2,4,-4,5,-6,6,-7,7,-7,8,-8,9,-8,10,-8,11,-9,12,-10,3,-3,0,0,0,0,0,0,0,0,0,0,0,0,0,0,0,0,0,0,0,5,2,23,4,23,4,23,4,24,4,24,4,26,3,28,2,30,2,29,3,27,2,26,1,26,1,25,2,23,3,22,4,22,6,21,8,20,10,20,12,20,14,21,17,21,19,23,20,24,20,25,21,25]",58,110,88.5,69,-30.0,134,0,0,77,0,0,1,25.0,9.0,-1094.0
CSI_DATA,11803,60:60:1f:fd:0a:5b,-65,8,0,0,0,0,0,0,0,0,0,-89,0,3,0,127191248,0,67,0,128,1,"[67,48,4,0,1,-25,1,-25,1,-24,2,-23,2,-22,2,-21,3,-20,3,-19,3,-17,3,-15,2,-13,2,-11,1,-9,1,-8,0,-6,-1,-4,-2,-3,-3,-1,-4,0,-6,0,-7,1,-9,2,-10,2,-12,3,-13,3,-4,0,0,0,0,0,0,0,0,0,0,0,0,0,0,0,0,0,0,0,0,-4,1,-16,3,-16,3,-16,3,-16,2,-17,2,-17,2,-18,1,-19,1,-20,2,-20,2,-21,2,-22,2,-22,2,-23,2,-23,2,-23,2,-24,1,-24,1,-24,1,-24,1,-25,0,-25,0,-26,0,-26,0,-26,0,-26]",58,120,88.5,69,-24.0,140,0,0,78,0,0,2,10.0,22.0,-1038.0
CSI_DATA,11809,60:60:1f:fd:0a:5b,-61,8,0,0,0,0,0,0,0,0,0,-89,0,3,0,127243613,0,67,0,128,1,"[67,48,4,0,32,1,32,2,31,2,30,2,28,2,27,2,26,3,24,3,23,2,21,3,19,3,16,3,15,3,13,2,11,2,10,2,8,1,6,0,5,0,3,-1,1,-1,0,-2,-1,-3,-2,-4,-3,-5,-1,-2,0,0,0,0,0,0,0,0,0,0,0,0,0,0,0,0,0,0,4,0,16,3,16,3,16,3,16,3,17,3,19,3,20,2,21,2,22,2,23,2,24,2,25,2,26,2,26,2,27,2,28,1,29,0,30,0,31,0,31,0,32,-1,33,-1,34,-1,34,0,34,0,35,0]",58,120,88.5,69,-23.0,143,0,0,78,0,0,3,-2.0,4.0,-1033.0
CSI_DATA,11812,60:60:1f:fd:0a:5b,-59,8,0,0,0,0,0,0,0,0,0,-89,0,3,0,127260251,0,67,0,128,1,"[67,48,4,0,24,19,23,18,22,18,21,18,20,17,18,17,17,16,16,15,15,14,14,13,12,12,10,11,9,10,8,9,7,8,6,7,5,5,4,4,4,3,3,2,2,1,1,0,1,-2,0,-3,0,-4,0,-2,0,0,0,0,0,0,0,0,0,0,0,0,0,0,0,0,0,0,2,2,11,10,11,9,11,9,11,10,12,10,13,10,14,11,14,11,15,11,16,12,17,13,18,13,19,14,19,14,20,14,21,15,22,14,23,14,23,15,24,15,25,16,26,16,26,17,26,18,26,17,26,17]",58,130,88.5,69,-17.0,146,0,0,78,0,0,2,7.0,12.0,-928.0
CSI_DATA,11840,60:60:1f:fd:0a:5b,-55,8,0,0,0,0,0,0,0,0,0,-89,0,3,0,127525503,0,67,0,128,1,"[67,48,4,0,-7,31,-7,31,-8,30,-8,29,-8,28,-8,27,-8,27,-8,26,-7,26,-7,25,-6,23,-6,22,-6,22,-5,21,-5,21,-5,20,-5,19,-5,18,-5,17,-5,16,-5,15,-5,14,-5,13,-5,13,-5,12,-2,2,0,0,0,0,0,0,0,0,0,0,0,0,0,0,0,0,0,0,-2,0,-5,2,-3,3,-3,4,-3,4,-3,4,-4,5,-4,7,-3,8,-2,10,-2,11,-2,12,-2,13,-2,14,-2,15,-2,17,-2,18,-2,20,-2,21,-2,22,-2,23,-2,25,-3,27,-3,28,-3,29,-4,30,-4,31]",58,130,88.5,69,-14.000000000000002,148,0,0,78,0,0,1,13.0,6.0,-969.0
CSI_DATA,11847,60:60:1f:fd:0a:5b,-56,8,0,0,0,0,0,0,0,0,0,-89,0,3,0,127584435,0,67,0,128,1,"[67,48,4,0,-28,-19,-28,-19,-28,-20,-27,-20,-26,-19,-25,-18,-25,-18,-25,-18,-24,-17,-23,-16,-21,-15,-20,-14,-21,-14,-21,-13,-21,-13,-20,-13,-19,-12,-19,-12,-18,-11,-17,-11,-16,-11,-15,-10,-14,-10,-13,-10,-12,-10,-3,-3,0,0,0,0,0,0,0,0,0,0,0,0,0,0,0,0,0,0,-1,-2,-2,-6,-1,-5,-1,-4,-2,-5,-3,-5,-4,-5,-4,-5,-5,-5,-7,-6,-9,-6,-10,-7,-12,-8,-13,-8,-14,-9,-15,-9,-17,-10,-18,-11,-19,-11,-20,-12,-22,-12,-23,-13,-25,-13,-26,-14,-27,-15,-28,-15,-29,-15]",58,130,88.5,69,-18.0,150,0,0,78,0,0,0,22.0,4.0,-988.0
CSI_DATA,11877,60:60:1f:fd:0a:5b,-56,8,0,0,0,0,0,0,0,0,0,-89,0,3,0,127886713,0,67,0,128,1,"[67,48,4,0,31,24,30,24,30,24,29,24,28,24,27,23,27,23,27,23,27,22,27,21,26,20,25,20,25,19,24,19,23,19,22,18,22,18,21,18,19,17,18,17,17,17,15,16,14,16,13,16,13,16,3,4,0,0,0,0,0,0,0,0,0,0,0,0,0,0,0,0,0,0,-1,3,-2,11,-2,10,1,10,3,10,3,10,3,9,4,9,6,10,7,10,9,10,11,11,13,12,14,12,15,13,16,14,18,15,20,15,21,16,23,17,24,17,25,17,26,18,28,19,30,20,31,20,32,20]",58,130,88.5,70,-16.0,151,0,0,78,0,0,0,5.0,0.0,-997.0
CSI_DATA,11883,60:60:1f:fd:0a:5b,-56,8,0,0,0,0,0,0,0,0,0,-89,0,3,0,127929584,0,67,0,128,1,"[67,48,4,0,27,-12,27,-11,27,-11,27,-10,26,-10,26,-10,26,-10,25,-10,25,-10,24,-10,23,-9,22,-8,22,-8,22,-9,21,-8,21,-8,20,-7,20,-7,19,-6,18,-5,17,-5,16,-4,15,-3,15,-3,15,-2,3,-1,0,0,0,0,0,0,0,0,0,0,0,0,0,0,0,0,0,0,2,0,8,0,8,0,8,1,8,1,8,0,10,0,10,-1,10,-2,11,-3,12,-3,12,-4,13,-5,14,-6,15,-7,16,-7,17,-8,18,-9,18,-9,19,-10,20,-10,21,-11,22,-12,23,-12,24,-13,25,-13,25,-14]",58,130,88.5,70,-14.000000000000002,152,0,0,78,0,0,0,3.0,6.0,-996.0
CSI_DATA,11913,60:60:1f:fd:0a:5b,-56,8,0,0,0,0,0,0,0,0,0,-89,0,3,0,128215355,0,67,0,128,1,"[67,48,4,0,-4,-30,-3,-29,-2,-28,-3,-27,-2,-27,0,-26,1,-24,0,-24,-1,-23,-3,-23,-3,-21,-3,-21,-3,-20,-3,-20,-3,-19,-2,-18,-2,-17,-2,-16,-2,-15,-2,-14,-2,-14,-2,-13,-2,-13,-2,-12,-2,-12,-1,-3,0,0,0,0,0,0,0,0,0,0,0,0,0,0,0,0,0,0,0,-3,2,-12,2,-12,2,-12,2,-12,2,-13,2,-13,1,-14,0,-15,0,-15,0,-16,1,-17,0,-18,-1,-19,-2,-19,-2,-20,-2,-22,-2,-23,-3,-23,-3,-24,-3,-24,-4,-25,-4,-27,-5,-28,-5,-28,-4,-27,-3,-27]",58,130,88.5,70,-10.0,151,0,0,78,0,0,0,5.0,0.0,-1012.0
CSI_DATA,11919,60:60:1f:fd:0a:5b,-56,8,0,0,0,0,0,0,0,0,0,-89,0,3,0,128259358,0,67,0,128,1,"[67,48,4,0,-23,-19,-23,-19,-22,-19,-21,-18,-20,-18,-19,-17,-19,-17,-18,-16,-18,-16,-17,-15,-17,-14,-16,-13,-15,-13,-15,-13,-14,-12,-13,-11,-13,-11,-12,-10,-11,-10,-11,-9,-10,-9,-10,-8,-9,-8,-9,-8,-9,-8,-2,-2,0,0,0,0,0,0,0,0,0,0,0,0,0,0,0,0,0,0,-2,-2,-8,-8,-9,-9,-9,-9,-9,-9,-10,-9,-11,-10,-11,-10,-12,-10,-12,-10,-13,-10,-14,-10,-15,-11,-16,-11,-17,-11,-18,-12,-19,-13,-19,-13,-20,-13,-21,-13,-21,-14,-22,-14,-23,-15,-24,-15,-25,-15,-25,-16,-25,-16]",58,130,88.0,70,-10.0,151,0,0,77,0,0,0,13.0,14.0,-990.0
